City_ID,City,Lat,Lng,Max Temp,Humidity,Cloudiness,Wind Speed,Country,Date
0,kodiak,57.79,-152.4072,5.73,87,100,3.09,US,1684152873
1,konkwesso,10.8469,4.0984,37.96,32,100,3.62,NG,1684153102
2,vadso,70.0744,29.7487,20.49,47,0,4.63,NO,1684153104
3,waitangi,-43.9535,-176.5597,13.92,74,37,8.36,NZ,1684152692
4,lautoka,-17.6167,177.4667,20.92,88,75,0.0,FJ,1684153106
5,kain,50.6379,3.3809,13.66,91,100,7.63,BE,1684153107
6,santa helena,-2.2311,-45.3,28.48,78,44,2.27,BR,1684153108
7,labytnangi,66.6572,66.4183,1.78,78,57,5.51,RU,1684152895
8,codrington,-38.2667,141.9667,11.68,81,15,4.55,AU,1684152864
9,bethel,41.3712,-73.414,13.83,60,0,2.57,US,1684152761
10,stanley,54.868,-1.6985,14.04,59,20,3.09,GB,1684152737
11,uturoa,-16.7333,-151.4333,27.29,75,0,1.91,PF,1684152693
12,tidjikja,18.5564,-11.4271,38.13,10,33,6.97,MR,1684153114
13,adamstown,-25.066,-130.1015,23.6,88,100,12.49,PN,1684152703
14,west island,-12.1568,96.8225,27.99,78,40,3.6,CC,1684152694
15,tiksi,71.6872,128.8694,-3.32,91,87,2.36,RU,1684152700
16,enewetak,11.3474,162.3373,27.95,76,95,7.54,MH,1684152688
17,kapa'a,22.0752,-159.319,20.99,87,100,3.6,US,1684152934
18,arraial do cabo,-22.9661,-42.0278,22.98,83,0,2.57,BR,1684152973
19,kencong,-8.2833,113.3667,24.01,80,9,0.7,ID,1684153123
20,ushuaia,-54.8,-68.3,9.81,76,40,4.63,AR,1684152686
21,pathein,16.7833,94.7333,28.57,74,88,4.48,MM,1684153125
22,kilindoni,-7.9139,39.6668,27.9,71,26,4.29,TZ,1684153126
23,thompson,55.7435,-97.8558,15.62,60,100,1.02,CA,1684152695
24,hobyo,5.3505,48.5268,30.03,62,88,12.02,SO,1684152807
25,wailua homesteads,22.0669,-159.378,20.24,88,100,3.6,US,1684152744
26,santa elena de uairen,4.6167,-61.1333,22.32,86,95,1.06,VE,1684153130
27,puerto natales,-51.7236,-72.4875,5.24,92,52,1.86,CL,1684152713
28,essaouira,31.5125,-9.77,26.72,44,1,7.2,MA,1684153132
29,altamirano,16.8833,-92.15,12.82,97,62,0.98,MX,1684153133
30,serdar,38.9764,56.2757,21.8,44,37,11.59,TM,1684153134
31,qaqortoq,60.7167,-46.0333,2.19,92,100,4.79,GL,1684152711
32,quellon,-43.1167,-73.6167,11.42,95,100,6.45,CL,1684152819
33,hawaiian paradise park,19.5933,-154.9731,20.73,96,100,2.06,US,1684152720
34,spearfish,44.4908,-103.8594,9.56,83,0,2.24,US,1684153136
35,touros,-5.1989,-35.4608,28.43,77,49,5.38,BR,1684152574
36,papatowai,-46.5619,169.4708,4.23,79,1,3.1,NZ,1684152698
37,port elizabeth,-33.918,25.5701,20.73,62,19,0.45,ZA,1684152824
38,yellowknife,62.456,-114.3525,10.7,58,48,2.46,CA,1684152697
39,susuman,62.7833,148.1667,-1.72,76,100,2.02,RU,1684153145
40,punta arenas,-53.15,-70.9167,3.95,93,82,3.67,CL,1684152405
41,shuangjiang,26.1547,109.7138,21.14,83,98,1.78,CN,1684153147
42,georgetown,5.4112,100.3354,30.96,74,20,1.03,MY,1684152578
43,mount gambier,-37.8333,140.7667,11.85,94,36,2.94,AU,1684152954
44,san pablo,14.0669,121.3258,27.17,88,99,1.62,PH,1684153150
45,kuzhener,56.8111,48.9128,15.01,49,81,3.68,RU,1684153151
46,soio,-6.1349,12.3689,28.96,72,76,2.88,AO,1684153152
47,ribeira grande,38.5167,-28.7,19.87,88,20,3.6,PT,1684152627
48,ilulissat,69.2167,-51.1,0.01,43,75,2.57,GL,1684152802
49,udachny,66.4167,112.4,3.03,74,97,2.34,RU,1684153155
50,tlahualilo de zaragoza,26.1167,-103.45,17.86,73,53,1.53,MX,1684153156
51,bilibino,68.0546,166.4372,-12.16,96,77,0.82,RU,1684152946
52,hotan,37.0997,79.9269,29.16,7,52,2.96,CN,1684153158
53,nungua,5.6011,-0.0771,27.79,77,100,3.59,GH,1684153159
54,beira,-19.8436,34.8389,28.05,61,20,4.63,MZ,1684152791
55,palembang,-2.9167,104.7458,31.05,70,40,1.54,ID,1684153161
56,kostomuksha,64.571,30.5767,17.2,47,93,2.82,RU,1684152869
57,port-aux-francais,-49.35,70.2167,5.52,75,35,15.07,TF,1684152683
58,djenne,13.9061,-4.5533,33.85,36,100,2.68,ML,1684153166
59,utrik,11.2278,169.8474,27.4,77,97,6.87,MH,1684152788
60,margaret river,-33.95,115.0667,15.82,79,91,2.42,AU,1684153169
61,nelson bay,-32.7167,152.15,16.11,97,69,0.89,AU,1684153137
62,lebu,-37.6167,-73.65,13.37,88,98,5.48,CL,1684152826
63,kijang,35.2442,129.2139,17.85,80,2,3.55,KR,1684153172
64,magadan,59.5667,150.8,3.63,68,69,0.8,RU,1684153173
65,nuuk,64.1835,-51.7216,2.34,69,20,5.66,GL,1684152710
66,whitehorse,60.7161,-135.0538,0.73,59,0,2.24,CA,1684152487
67,klyuchi,52.2667,79.1667,18.41,25,29,4.9,RU,1684152794
68,ust-nera,64.5667,143.2,-0.17,95,99,2.05,RU,1684153177
69,huarmey,-10.0681,-78.1522,21.67,82,43,2.96,PE,1684153178
70,invercargill,-46.4,168.35,8.34,95,19,1.34,NZ,1684152705
71,sokoni,-6.4333,39.55,27.95,71,8,5.14,TZ,1684153180
72,mil'kovo,55.6078,37.7956,19.73,38,9,1.84,RU,1684153181
73,albany,42.6001,-73.9662,11.13,69,2,2.14,US,1684152637
74,corner brook,48.9667,-57.9484,4.09,71,92,4.88,CA,1684152345
75,guano,-1.5833,-78.6333,8.7,95,98,1.12,EC,1684153184
76,grytviken,-54.2811,-36.5092,2.18,98,91,3.93,GS,1684152672
77,edinburgh of the seven seas,-37.0676,-12.3116,17.62,97,97,7.18,SH,1684152689
78,tarawa,1.419,172.984,27.05,89,100,1.03,KI,1684153189
79,avarua,-21.2078,-159.775,23.03,83,75,1.03,CK,1684152736
80,shingu,33.7333,135.9833,16.54,89,26,1.53,JP,1684152878
81,iqaluit,63.7506,-68.5145,-2.39,74,95,6.71,CA,1684152765
82,blackmans bay,-43.0167,147.3167,14.07,81,95,4.13,AU,1684152888
83,alta,69.9689,23.2717,16.59,36,0,5.66,NO,1684153180
84,karwar,14.8,74.1333,29.94,65,75,5.14,IN,1684153196
85,petrovsk-zabaykal'skiy,51.273,108.843,4.87,30,100,0.98,RU,1684153197
86,isfara,40.1265,70.6253,29.71,20,0,4.03,TJ,1684153198
87,longyearbyen,78.2186,15.6401,-6.09,68,75,9.77,SJ,1684152970
88,apatzingan,19.0833,-102.35,23.55,48,6,0.83,MX,1684153200
89,barth,54.3635,12.7249,14.74,82,22,3.86,DE,1684152939
90,tofol,5.3248,163.0078,28.38,78,100,9.05,FM,1684153202
91,morshansk,53.4435,41.8107,15.02,57,70,4.29,RU,1684153203
92,newton,42.337,-71.2092,14.99,45,0,4.63,US,1684153020
93,noumea,-22.2763,166.4572,18.99,77,35,5.26,NC,1684153077
94,port mathurin,-19.6833,63.4167,25.51,74,1,5.5,MU,1684152767
95,orchard homes,46.8633,-114.0484,14.08,79,0,6.17,US,1684153210
96,tabou,4.423,-7.3528,28.03,78,87,3.15,CI,1684153211
97,kulachi,31.9286,70.4592,40.52,9,45,3.57,PK,1684153212
98,weno,7.4515,151.8468,27.97,89,40,1.54,FM,1684152684
99,kavaratti,10.5669,72.642,29.65,71,56,4.77,IN,1684153214
100,pisco,-13.7,-76.2167,16.68,94,27,1.54,PE,1684153215
101,mana,5.6592,-53.7767,27.32,82,35,3.63,GF,1684153216
102,khemis miliana,36.261,2.2202,23.53,27,18,7.55,DZ,1684153217
103,delphos,40.8434,-84.3416,11.49,67,100,4.92,US,1684153073
104,horta,38.5333,-28.6333,19.45,86,20,3.6,PT,1684153219
105,gilgit,35.9221,74.3087,22.68,36,26,0.44,PK,1684153221
106,moranbah,-22.0016,148.0466,20.58,64,30,3.03,AU,1684153222
107,zyryanskoye,56.8306,86.6258,9.77,33,99,3.92,RU,1684153223
108,tazovsky,67.4667,78.7,-0.29,94,100,5.49,RU,1684152725
109,usogorsk,63.4106,48.6872,18.85,35,98,2.97,RU,1684153225
110,el nido,11.1858,119.3956,28.36,76,72,2.56,PH,1684153226
111,estevan,49.1334,-102.9842,10.19,87,0,2.06,CA,1684153227
112,bolobo,-2.1667,16.2333,33.65,46,43,1.66,CD,1684153229
113,balqash,46.8481,74.995,20.33,19,0,7.0,KZ,1684153230
114,kiruna,67.8557,20.2251,17.51,29,0,7.2,SE,1684153232
115,nicoya,10.1483,-85.452,26.15,74,92,1.32,CR,1684153233
116,slavyanka,42.8633,131.3847,9.94,98,100,1.83,RU,1684153234
117,fale old settlement,-9.3852,-171.2468,28.47,79,22,5.52,TK,1684152676
118,reggane,26.7158,0.1714,31.22,10,0,6.62,DZ,1684153236
119,pacific grove,36.6177,-121.9166,13.01,93,100,0.0,US,1684153237
120,kuvandyk,51.4781,57.3552,17.15,41,30,5.26,RU,1684153238
121,el porvenir,13.7617,-87.3458,21.63,65,71,1.69,HN,1684153239
122,kirakira,-10.4544,161.9205,26.63,86,99,0.86,SB,1684152830
123,severo-yeniseyskiy,60.3725,93.0408,-1.77,74,100,3.11,RU,1684152717
124,mount pearl,47.5166,-52.7813,6.17,85,75,11.32,CA,1684153243
125,flin flon,54.7682,-101.865,15.91,48,75,3.6,CA,1684153244
126,ilhabela,-23.7781,-45.3581,21.12,64,5,1.36,BR,1684152919
127,kelso,46.1468,-122.9084,18.92,76,0,0.0,US,1684153247
128,antsiranana,-12.2787,49.2917,29.83,53,16,4.98,MG,1684152747
129,takoradi,4.8845,-1.7554,26.07,87,100,3.68,GH,1684153245
130,puerto ayora,-0.7393,-90.3518,25.31,90,100,3.58,EC,1684152775
131,jamestown,42.097,-79.2353,11.12,86,0,0.45,US,1684153251
132,amos,48.5669,-78.1162,11.33,47,100,5.59,CA,1684153180
133,constantia,44.1833,28.65,19.38,63,72,6.82,RO,1684152787
134,namsos,64.4662,11.4957,13.95,62,20,4.12,NO,1684153256
135,afaahiti,-17.75,-149.2833,22.93,81,36,2.07,PF,1684153258
136,vila velha,-20.3297,-40.2925,24.97,80,0,1.54,BR,1684152876
137,belle fourche,44.6714,-103.8522,8.94,84,63,1.6,US,1684153260
138,aasiaat,68.7098,-52.8699,-4.69,74,100,6.11,GL,1684152902
139,villaverde del rio,37.6008,-5.8951,29.28,23,15,2.13,ES,1684153262
140,quepos,9.4236,-84.1652,27.06,78,99,1.43,CR,1684153263
141,remire-montjoly,4.9167,-52.2667,27.02,89,75,4.12,GF,1684152844
142,lorengau,-2.0226,147.2712,27.99,79,70,2.1,PG,1684152791
143,iskateley,67.6803,53.1512,4.4,85,93,6.48,RU,1684152971
144,broken hill,-31.95,141.4333,13.33,54,31,2.09,AU,1684153267
145,hithadhoo,-0.6,73.0833,28.63,79,100,7.03,MV,1684152884
146,qarqaraly,49.4058,75.4742,13.47,22,10,4.71,KZ,1684153270
147,baihe,22.15,107.2333,25.86,78,90,1.54,CN,1684153271
148,shats'k,51.5021,23.9381,14.03,74,100,6.68,UA,1684153272
149,saipan,15.1355,145.701,28.39,100,0,3.09,MP,1684153273
150,kirishi,59.4471,32.0205,20.71,35,61,2.15,RU,1684153274
151,lihue,21.9789,-159.3672,20.58,88,100,3.6,US,1684152869
152,qarayeri,40.7886,46.3066,19.49,48,75,5.14,AZ,1684153277
153,st. john's,47.5649,-52.7093,7.04,85,75,10.8,CA,1684152729
154,khandyga,62.6667,135.6,5.0,80,100,2.81,RU,1684152803
155,cabo san lucas,22.8909,-109.9124,20.28,64,7,4.86,MX,1684152728
156,caleta de carquin,-11.0925,-77.6267,20.96,81,31,3.56,PE,1684153044
157,arias,-33.6441,-62.4027,15.38,61,0,3.32,AR,1684153282
158,crane,31.3974,-102.3501,19.17,68,51,4.17,US,1684153284
159,hasaki,35.7333,140.8333,17.34,79,100,6.45,JP,1684153285
160,talpa de allende,20.3833,-104.8167,17.36,55,44,1.68,MX,1684153286
161,poronaysk,49.2167,143.1167,7.0,93,88,6.57,RU,1684153287
162,praia da vitoria,38.7333,-27.0667,19.86,86,6,3.23,PT,1684152879
163,bredasdorp,-34.5322,20.0403,19.44,45,1,3.57,ZA,1684152705
164,samus',56.7475,84.6992,12.78,36,99,2.52,RU,1684153291
165,chonchi,-42.6128,-73.8092,11.18,95,100,2.64,CL,1684152877
166,olonkinbyen,70.9221,-8.7187,0.28,98,100,6.11,SJ,1684152868
167,weligama,5.9667,80.4167,28.69,84,98,4.97,LK,1684153295
168,badger,64.8,-147.5333,8.93,57,20,4.63,US,1684153297
169,akureyri,65.6835,-18.0878,-1.04,93,100,6.17,IS,1684152857
170,the dalles,45.5946,-121.1787,18.89,68,0,2.06,US,1684153064
171,polyarnyy,69.1989,33.4478,8.36,89,89,2.51,RU,1684152964
172,saint-philippe,-21.3585,55.7679,27.77,83,42,3.88,RE,1684152891
173,cafayate,-26.073,-65.9761,17.9,48,0,0.84,AR,1684153240
174,la sarre,48.8002,-79.1996,10.05,51,100,6.36,CA,1684153307
175,banikoara,11.2985,2.4386,35.75,39,100,4.49,BJ,1684153308
176,kedougou,12.5579,-12.1743,38.32,32,0,2.06,SN,1684153309
177,chui,-33.6971,-53.4616,16.05,64,17,3.72,UY,1684153310
178,arteaga,18.4667,-102.4167,17.73,45,2,0.94,MX,1684153311
179,lepsy,46.235,78.9456,18.05,29,89,7.54,KZ,1684153312
180,xinyuan,37.3,99.0,11.18,38,69,3.06,CN,1684153314
181,dryden,49.7833,-92.7503,10.16,62,20,3.6,CA,1684153315
182,nikolayevsk-on-amure,53.1406,140.73,9.65,89,42,3.72,RU,1684153316
183,gizo,-8.103,156.8419,27.99,79,79,0.44,SB,1684153317
184,alpine,32.835,-116.7664,13.58,91,100,2.06,US,1684153318
185,usinsk,65.9939,57.5281,4.17,89,100,7.43,RU,1684153319
186,bathsheba,13.2167,-59.5167,29.34,65,40,6.17,BB,1684153321
187,okhotsk,59.3833,143.3,2.88,70,92,4.75,RU,1684152851
188,malpe,13.35,74.7167,30.29,66,86,4.84,IN,1684153324
189,nako,31.8814,78.627,6.51,48,36,3.54,IN,1684153326
190,college,64.8569,-147.8028,8.97,52,40,4.63,US,1684152560
191,petropavlovsk-kamchatsky,53.0452,158.6483,7.1,75,21,2.93,RU,1684152798
192,lhokseumawe,5.1801,97.1507,27.85,80,62,2.13,ID,1684153329
193,williams lake,52.1415,-122.1445,13.76,47,0,1.03,CA,1684153330
194,dapa,9.7594,126.0531,28.41,77,89,1.33,PH,1684153332
195,la'ie,21.6477,-157.9253,22.28,66,69,0.45,US,1684153333
196,visp,46.2937,7.8815,17.9,70,87,2.42,CH,1684153334
197,tual,-5.6667,132.75,27.49,79,100,1.84,ID,1684153335
198,kolonia,50.9333,6.95,20.32,55,20,4.63,DE,1684153336
199,vila franca do campo,37.7167,-25.4333,19.23,69,66,1.96,PT,1684153338
200,emerald,-23.5333,148.1667,15.19,89,18,3.32,AU,1684153313
201,anadyr,64.75,177.4833,-7.72,79,0,2.0,RU,1684152768
202,al jawf,29.5,38.75,31.68,9,100,1.83,SA,1684153342
203,atafu village,-8.5421,-172.5159,28.58,78,37,5.07,TK,1684153344
204,lenger,42.183,69.8839,28.69,41,21,4.69,KZ,1684153345
205,namtsy,62.7161,129.6658,8.81,53,100,5.39,RU,1684153346
206,ad dabbah,18.05,30.95,39.74,4,1,4.62,SD,1684153347
207,kabalo,-6.05,26.9167,33.09,42,48,2.47,CD,1684153350
208,salinas,36.6777,-121.6555,14.05,91,100,1.54,US,1684153352
209,hadibu,12.65,54.0333,31.39,69,60,1.56,YE,1684153353
210,wainwright,52.839,-110.8572,13.07,74,2,3.33,CA,1684153354
211,wakkanai,45.4094,141.6739,10.78,94,100,6.73,JP,1684153355
212,mazamari,-11.3258,-74.5308,22.04,85,92,0.52,PE,1684152883
213,nguigmi,14.2495,13.1092,37.54,18,44,5.68,NE,1684152832
214,talnakh,69.4865,88.3972,-3.77,93,100,7.18,RU,1684152975
215,barreirinha,-2.7933,-57.07,25.63,94,100,1.47,BR,1684153361
216,changyon,38.2508,125.0961,14.83,81,1,3.1,KP,1684153362
217,churapcha,62.0025,132.4325,7.76,73,100,6.44,RU,1684153363
218,nova sintra,14.8667,-24.7167,20.0,78,18,9.7,CV,1684152912
219,tromso,69.6496,18.957,17.01,36,0,6.17,NO,1684153366
220,port alfred,-33.5906,26.891,20.1,67,32,1.34,ZA,1684153367
221,ancud,-41.8697,-73.8203,11.41,91,100,4.83,CL,1684153368
222,east london,-33.0153,27.9116,19.52,59,20,5.14,ZA,1684153369
223,bozoum,6.3193,16.3799,35.76,35,20,2.29,CF,1684153370
224,gasa,31.5,34.4667,30.49,63,85,7.11,PS,1684153314
225,sao felix do xingu,-6.6447,-51.995,26.43,80,23,0.79,BR,1684153234
226,bogo,11.0517,124.0055,28.23,73,100,0.68,PH,1684153374
227,saudarkrokur,65.7461,-19.6394,-1.49,92,100,5.85,IS,1684153375
228,meadow lake,34.8014,-106.5436,15.16,68,88,3.64,US,1684153376
229,jean-rabel,19.8533,-73.1917,26.96,70,93,0.94,HT,1684153377
230,bela,25.9333,81.9833,41.19,10,1,6.54,IN,1684152826
231,mugia,43.1041,-9.2179,18.98,74,81,8.68,ES,1684153380
232,vera,-29.4593,-60.2126,16.44,63,0,3.23,AR,1684153381
233,keflavik,64.0049,-22.5624,5.95,81,75,8.75,IS,1684153382
234,porbandar,21.6422,69.6093,30.89,68,6,7.74,IN,1684153384
235,kingston,17.997,-76.7936,28.53,75,20,5.66,JM,1684153385
236,richards bay,-28.783,32.0377,17.63,85,87,4.52,ZA,1684153386
237,katsuura,35.1333,140.3,16.41,81,98,6.71,JP,1684153387
238,delijan,33.9905,50.6838,26.48,9,4,13.14,IR,1684153388
239,raduzhny,62.0961,77.475,3.86,89,100,5.77,RU,1684153390
240,road town,18.4167,-64.6167,28.02,78,20,2.57,VG,1684153391
241,canutama,-6.5339,-64.3831,24.82,94,95,0.76,BR,1684153393
242,mejit,10.2753,170.8646,27.59,77,85,7.41,MH,1684153394
243,hermanus,-34.4187,19.2345,20.45,55,4,4.38,ZA,1684153396
244,ishigaki,24.3448,124.1572,24.07,78,100,3.09,JP,1684153397
245,colonia,50.9333,6.95,20.53,55,20,4.63,DE,1684153398
246,provadia,43.1833,27.4333,17.44,45,67,6.09,BG,1684153399
247,smara,26.7384,-11.6719,28.09,25,0,5.96,EH,1684153400
248,jumla,29.2747,82.1838,17.52,33,94,1.99,NP,1684153402
249,fecamp,49.7579,0.3746,12.84,82,100,7.8,FR,1684153403
250,guerrero negro,27.9769,-114.0611,14.13,90,0,3.5,MX,1684153404
251,dudinka,69.4058,86.1778,-3.54,95,100,7.4,RU,1684153405
252,papao,-17.75,-149.55,23.82,81,22,1.69,PF,1684153406
253,kapuskasing,49.4169,-82.4331,11.43,40,99,5.61,CA,1684152862
254,cabedelo,-6.9811,-34.8339,29.37,76,100,6.08,BR,1684153110
255,umm kaddadah,13.6017,26.6876,40.26,7,2,1.67,SD,1684153410
256,iwanai,42.9744,140.5089,11.99,94,100,2.91,JP,1684153411
257,vilyuchinsk,52.9306,158.4028,7.92,84,24,3.8,RU,1684152741
258,sisimiut,66.9395,-53.6735,0.11,67,100,1.79,GL,1684153413
259,mata-utu,-13.2816,-176.1745,28.03,71,21,2.07,WF,1684153415
260,ketchikan,55.3422,-131.6461,13.26,88,0,6.17,US,1684152921
261,hojai,26.0,92.8667,24.72,76,66,3.42,IN,1684153418
262,jagatsinghapur,20.2667,86.1667,33.2,63,69,6.1,IN,1684153419
263,fedorovskiy,45.0972,40.9517,20.11,51,24,1.66,RU,1684153420
264,turpan,42.9333,89.1667,32.23,19,49,6.4,CN,1684153421
265,sao jose da coroa grande,-8.8978,-35.1478,27.9,77,98,4.62,BR,1684153423
266,caibarien,22.5206,-79.4669,23.62,79,60,1.82,CU,1684153424
267,sechura,-5.5569,-80.8222,23.83,79,83,4.58,PE,1684153425
268,enoch,37.7733,-113.0244,16.14,44,20,6.69,US,1684153426
269,boden,65.8252,21.6886,12.0,42,67,4.76,SE,1684153428
270,tobruk,32.0836,23.9764,24.65,48,42,8.03,LY,1684153429
271,paramonga,-10.6667,-77.8333,21.25,82,58,3.28,PE,1684152892
272,alice springs,-23.7,133.8833,10.75,87,18,2.49,AU,1684152870
273,itaituba,-4.2761,-55.9836,29.09,84,20,0.0,BR,1684153429
274,kushiro,42.975,144.3747,8.48,97,100,4.32,JP,1684153434
275,bairnsdale,-37.8333,147.6167,11.7,78,3,0.45,AU,1684153436
276,bagan,54.1001,77.6646,15.16,42,85,6.74,RU,1684153437
277,the pas,53.8251,-101.2541,16.01,44,75,6.17,CA,1684153439
278,vernon,50.2581,-119.2691,15.16,62,0,4.63,CA,1684153440
279,sao vicente,-23.9631,-46.3919,21.82,73,0,1.03,BR,1684153441
280,felahiye,39.0906,35.5672,18.41,35,13,4.4,TR,1684153442
281,kawanoecho,34.0167,133.5667,19.21,72,11,2.36,JP,1684153444
282,vinh,18.6667,105.6667,25.89,87,96,3.8,VN,1684153272
283,alaghsas,17.0187,8.0168,41.94,14,0,3.09,NE,1684153446
284,port-vila,-17.7338,168.3219,22.78,94,75,1.03,VU,1684153447
285,oudewater,52.025,4.8681,15.61,84,100,2.24,NL,1684153449
286,brokopondo,4.75,-55.1667,26.04,90,76,4.25,SR,1684153450
287,pavlovka,52.6897,47.1405,14.64,58,83,4.11,RU,1684153451
288,ola,59.5833,151.2833,3.97,64,56,0.8,RU,1684153453
289,nyurba,63.2842,118.3319,4.15,52,100,1.41,RU,1684152872
290,ambon,-3.6954,128.1814,26.8,13,40,2.06,ID,1684153455
291,segou,13.4317,-6.2157,33.03,40,99,2.25,ML,1684153457
292,kailua-kona,19.6406,-155.9956,23.06,82,100,4.63,US,1684153458
293,enniscorthy,52.5008,-6.5578,13.6,61,38,4.7,IE,1684153462
294,waingapu,-9.6567,120.2641,23.71,72,74,2.17,ID,1684153463
295,north bend,43.4065,-124.2243,13.29,97,100,0.0,US,1684153464
296,kasongo,-4.45,26.6667,32.46,43,59,2.17,CD,1684153465
297,popondetta,-8.7537,148.2534,24.66,97,70,1.11,PG,1684153467
298,mocajuba,-2.5842,-49.5072,24.91,95,94,0.91,BR,1684153468
299,tselina,46.5338,41.0328,20.89,53,14,2.58,RU,1684153470
300,taltal,-25.4,-70.4833,16.8,89,29,1.54,CL,1684153472
301,brisas de zicatela,15.8369,-97.0419,24.29,83,40,3.6,MX,1684153473
302,matoury,4.8483,-52.3317,26.98,89,75,4.12,GF,1684153474
303,duragan,41.4158,35.0544,21.87,37,53,1.8,TR,1684153475
304,barro alto,-11.7608,-41.9117,21.76,82,100,2.9,BR,1684153476
305,fukuecho,32.6881,128.8419,18.83,85,64,3.5,JP,1684153478
306,fort mcmurray,56.7268,-111.381,12.73,54,0,1.03,CA,1684153479
307,walvis bay,-22.9575,14.5053,17.27,65,7,4.07,NA,1684153480
308,san patricio,28.017,-97.5169,24.35,90,91,2.48,US,1684152898
309,new norfolk,-42.7826,147.0587,14.72,74,91,4.03,AU,1684153483
310,minas de marcona,-15.2119,-75.1103,15.19,86,28,2.07,PE,1684153484
311,vorgashor,67.5833,63.95,-0.84,88,99,9.28,RU,1684153281
312,coquimbo,-29.9533,-71.3436,15.83,92,87,0.42,CL,1684153426
313,namibe,-15.1961,12.1522,25.39,58,4,3.78,AO,1684153488
314,molde,62.7375,7.1591,10.95,87,75,2.57,NO,1684153489
315,hargeysa,9.56,44.065,29.65,40,47,3.99,SO,1684153298
316,juneau,58.3019,-134.4197,8.45,94,0,0.0,US,1684153491
317,balkanabat,39.5108,54.3671,19.12,56,90,8.8,TM,1684153492
318,yung shue wan,22.2333,114.1167,25.87,82,100,3.65,HK,1684153493
319,acarau,-2.8856,-40.12,27.97,78,9,5.58,BR,1684153468
320,buta,2.7858,24.73,39.2,25,41,1.87,CD,1684153496
321,oum hadjer,13.2954,19.6966,41.66,15,2,2.07,TD,1684153497
322,carnarvon,-24.8667,113.6333,21.6,46,0,7.07,AU,1684153498
323,mayahi,13.9553,7.6712,40.75,11,53,2.84,NE,1684153499
324,antalaha,-14.9003,50.2788,27.62,66,3,3.89,MG,1684153501
325,labrador city,52.9463,-66.9114,4.95,93,100,3.6,CA,1684153502
326,singaraja,-8.112,115.0882,25.58,78,16,2.67,ID,1684153503
327,port hueneme,34.1478,-119.1951,17.4,95,100,2.57,US,1684153504
328,eirunepe,-6.6603,-69.8736,23.97,86,99,1.05,BR,1684153506
329,wuwei,37.9281,102.6414,24.05,16,90,3.28,CN,1684153507
330,sanctuary point,-35.1114,150.629,13.51,87,25,2.22,AU,1684153509
331,saldanha,-33.0117,17.9442,23.03,52,5,3.6,ZA,1684153510
332,istgah-e rah ahan-e garmsar,35.2346,52.3094,28.64,16,4,5.71,IR,1684153512
333,namdrik,5.5994,168.1028,27.77,78,100,3.52,MH,1684153513
334,rongelap,11.1635,166.8941,27.6,78,51,5.1,MH,1684153514
335,lerwick,60.1545,-1.1494,11.0,69,12,6.67,GB,1684153515
336,la ronge,55.1001,-105.2842,15.14,44,100,3.09,CA,1684153518
337,tolanaro,-25.0319,46.9987,27.04,78,40,7.2,MG,1684153519
338,anloga,5.7947,0.8973,27.46,82,100,5.05,GH,1684153520
339,fort bragg,35.139,-79.006,19.55,68,0,2.06,US,1684153521
340,tezu,27.9167,96.1667,19.91,96,100,1.29,IN,1684153522
341,puerto baquerizo moreno,-0.9,-89.6,25.01,73,100,5.45,EC,1684153524
342,kirando,-7.4167,30.6,27.55,62,42,2.68,TZ,1684153525
343,port lincoln,-34.7333,135.8667,15.48,82,0,3.79,AU,1684153526
344,leticia,-4.2153,-69.9406,25.03,94,100,2.06,CO,1684153527
345,tura,25.5198,90.2201,28.29,47,26,1.88,IN,1684153528
346,ghanzi,-21.5667,21.7833,27.6,24,46,0.24,BW,1684153530
347,selfoss,63.9331,-20.9971,4.47,75,88,7.96,IS,1684153531
348,ronne,55.1009,14.7066,20.95,37,75,5.66,DK,1684153534
349,chinde,26.8418,88.0763,22.78,44,87,1.78,NP,1684153535
350,jalai nur,49.45,117.7,7.81,16,96,4.08,CN,1684153536
351,lively,46.4334,-81.1498,8.34,67,19,3.54,CA,1684153539
352,oriximina,-1.7656,-55.8661,25.99,90,99,1.97,BR,1684153540
353,jefferson,38.1834,-85.65,17.92,54,100,3.13,US,1684153541
354,cannonvale,-20.2833,148.7,22.66,91,40,2.9,AU,1684153543
355,likasi,-10.9814,26.7333,27.41,40,43,1.38,CD,1684153544
356,alcacer do sal,38.3733,-8.5144,26.3,30,61,5.75,PT,1684153545
357,zouerate,22.7187,-12.4521,33.07,11,68,5.33,MR,1684153546
358,nagqu,31.5,92.0,5.94,34,100,0.21,CN,1684153547
359,vilhena,-12.7406,-60.1458,22.12,83,0,5.14,BR,1684153549
360,adrar,20.5022,-10.0711,37.04,9,32,7.0,MR,1684153551
361,sampit,-2.5333,112.95,24.42,82,26,1.22,ID,1684153552
362,souillac,-20.5167,57.5167,28.21,69,40,4.63,MU,1684153553
363,abepura,-2.6333,140.5833,27.45,83,20,2.06,ID,1684153554
364,korla,41.7597,86.1469,30.54,11,2,8.03,CN,1684153556
365,kyosai,34.8503,128.5886,17.98,89,1,2.62,KR,1684153558
366,upata,8.0086,-62.3989,26.22,69,54,3.21,VE,1684153560
367,aljezur,37.3191,-8.8033,21.46,51,41,6.74,PT,1684153561
368,freetown,8.484,-13.2299,29.84,70,75,4.12,SL,1684153562
369,sinah,36.809,43.0389,25.99,23,9,3.15,IQ,1684153564
370,ghat,24.9647,10.1728,32.33,18,40,6.35,LY,1684153565
371,rock springs,41.5875,-109.2029,7.8,91,75,4.12,US,1684153475
372,luderitz,-26.6481,15.1594,23.29,39,0,3.55,NA,1684153567
373,thames,-37.1333,175.5333,9.51,90,3,0.76,NZ,1684153569
374,san antonio de pale,-1.4014,5.6325,27.51,83,100,7.12,GQ,1684153570
375,matthew town,20.95,-73.6667,26.89,78,73,2.21,BS,1684153571
376,happy valley-goose bay,53.3168,-60.3315,3.17,87,75,6.69,CA,1684153572
377,lac-brome,45.2168,-72.5158,10.76,76,72,3.52,CA,1684153573
378,betioky,-23.7167,44.3833,28.99,40,30,5.72,MG,1684153574
379,rabo de peixe,37.8,-25.5833,18.73,72,20,3.09,PT,1684153576
380,male,4.1748,73.5089,29.97,79,75,9.77,MV,1684153400
381,inari,68.906,27.0288,20.11,39,45,6.47,FI,1684153580
382,callao,-12.0667,-77.15,22.16,78,75,4.12,PE,1684153581
383,sao joao da barra,-21.6403,-41.0511,24.05,78,53,2.19,BR,1684153582
384,darnah,32.767,22.6367,28.68,35,36,9.21,LY,1684153583
385,toliara,-23.35,43.6667,27.06,58,3,4.49,MG,1684153585
386,opuwo,-18.0607,13.84,28.96,16,0,3.25,NA,1684153586
387,motygino,58.1831,94.7592,4.04,49,96,4.3,RU,1684153587
388,bangjun,39.9911,117.2628,26.46,24,1,2.37,CN,1684153589
389,gaigeturi,33.4644,126.3183,17.03,94,31,0.51,KR,1684153592
390,timimoun,29.2639,0.231,27.21,12,0,4.12,DZ,1684153593
391,atamanovka,51.93,113.63,8.24,20,91,1.53,RU,1684153594
392,cidreira,-30.1811,-50.2056,17.32,73,91,5.15,BR,1684153595
393,monte alegre,-2.0078,-54.0692,25.95,85,100,2.09,BR,1684153596
394,gobabis,-22.45,18.9667,24.78,25,45,3.38,NA,1684153598
395,conceicao do araguaia,-8.2578,-49.2647,25.29,87,90,0.88,BR,1684153599
396,coahuayana de hidalgo,18.7,-103.6583,21.94,64,1,1.56,MX,1684153600
397,kyzyl-suu,42.3414,78.0056,17.06,45,29,1.35,KG,1684153602
398,humaita,-7.5061,-63.0208,25.02,92,91,0.9,BR,1684153606
399,alofi,-19.0595,-169.9187,23.94,83,75,5.66,NU,1684153608
400,gore,-46.1028,168.9436,4.21,94,2,1.19,NZ,1684153609
401,rikaze,29.25,88.8833,17.24,13,71,4.5,CN,1684153610
402,thunder bay,48.4001,-89.3168,6.99,65,75,11.83,CA,1684153362
403,as samawah,31.332,45.2944,35.23,13,50,6.92,IQ,1684153612
404,ungsang-nodongjagu,42.3578,130.4622,10.81,99,99,0.36,KP,1684153613
405,gogrial,8.5332,28.1004,43.62,16,26,0.74,SS,1684153615
406,bayside,40.8424,-124.0637,13.13,95,100,0.0,US,1684153616
407,acapulco de juarez,16.8634,-99.8901,25.9,78,40,0.0,MX,1684153320
408,kayangel,8.0823,134.7173,29.06,77,100,5.16,PW,1684153618
409,severobaykal'sk,55.65,109.3167,-1.59,67,21,0.24,RU,1684153619
410,zhabinka,52.1984,24.0115,18.98,45,100,7.0,BY,1684153621
411,stephenville,32.2207,-98.2023,19.31,94,40,0.0,US,1684153622
412,la sierpe,2.8518,-77.6155,25.34,93,100,1.29,CO,1684153625
413,kudahuvadhoo,2.6708,72.8944,28.46,81,72,6.84,MV,1684153626
414,vallenar,-28.5708,-70.7581,15.11,84,4,0.87,CL,1684153628
415,port shepstone,-30.7414,30.455,17.9,77,96,6.61,ZA,1684153629
416,santiago,-33.4569,-70.6483,14.92,90,35,1.12,CL,1684153595
417,qamdo,31.1667,97.2333,6.95,40,100,2.3,CN,1684153632
418,sitka,57.0531,-135.33,8.94,81,0,0.0,US,1684153633
419,hamilton,39.1834,-84.5333,12.92,90,100,6.69,US,1684153634
420,misratah,32.3754,15.0925,22.06,64,44,12.97,LY,1684153635
421,kindu,-2.95,25.95,35.96,36,45,1.27,CD,1684153636
422,lagunillas,10.1301,-71.2595,26.45,82,100,2.2,VE,1684153637
423,arkhangel'sk,64.5401,40.5433,20.31,35,47,2.61,RU,1684153458
424,horqueta,-23.3428,-57.0597,17.55,70,0,2.07,PY,1684153641
425,manokwari,-0.8667,134.0833,27.34,81,57,2.65,ID,1684153642
426,bereznik,62.8551,42.7072,21.99,28,44,1.62,RU,1684153643
427,lompoc,34.6391,-120.4579,14.45,89,100,1.54,US,1684153644
428,lityn,49.3251,28.0809,19.56,46,39,8.03,UA,1684153646
429,puerto aysen,-45.4,-72.7,12.54,99,99,1.56,CL,1684153647
430,pandan,14.0453,124.1694,27.36,81,95,1.29,PH,1684153649
431,noshiro,40.2039,140.0242,14.11,92,100,1.28,JP,1684153650
432,makhambet,47.6667,51.5833,22.8,27,100,5.12,KZ,1684153651
433,paulden,34.8856,-112.4682,17.53,54,54,1.19,US,1684153652
434,taroa,8.7058,171.2275,27.73,78,100,7.47,MH,1684153654
435,dhuusamarreeb,5.535,46.3861,34.25,37,44,6.94,SO,1684153655
436,bredy,52.4153,60.3411,16.68,35,9,3.08,RU,1684153656
437,port augusta,-32.5,137.7667,16.86,44,1,3.26,AU,1684153657
438,tobol'sk,58.2,68.2667,16.43,31,99,6.1,RU,1684153441
439,kurmuk,10.55,34.2833,39.35,19,59,2.92,SD,1684153659
440,kiunga,-6.1219,141.2906,23.58,99,98,0.51,PG,1684153661
441,tindouf,27.6711,-8.1474,32.25,14,0,6.17,DZ,1684153662
442,fortaleza,-3.7227,-38.5247,29.07,79,75,4.12,BR,1684153421
443,isangel,-19.55,169.2667,22.06,88,20,0.0,VU,1684153664
444,pascagoula,30.3658,-88.5561,24.4,91,0,0.0,US,1684153574
445,machico,32.7,-16.7667,23.73,60,40,7.2,PT,1684153667
446,shalqar,47.8333,59.6,18.93,28,100,6.56,KZ,1684153668
447,calama,-22.4667,-68.9333,15.89,16,13,3.02,CL,1684153669
448,nouadhibou,20.931,-17.0347,17.81,91,70,5.27,MR,1684153671
449,nanaimo,49.1663,-123.936,18.87,68,0,2.06,CA,1684153672
450,liwale,-9.7667,37.9333,25.6,76,57,0.65,TZ,1684153673
451,winnemucca,40.973,-117.7357,8.03,81,0,2.06,US,1684153675
452,da nang,16.0678,108.2208,27.99,78,40,1.03,VN,1684153676
453,tihuatlan,20.7167,-97.5333,21.36,87,64,1.79,MX,1684153677
454,mili,6.0815,171.735,28.05,80,95,7.39,MH,1684153678
455,fernie,49.5,-115.0687,8.05,95,22,1.58,CA,1684153679
456,malabar,-33.9667,151.25,14.88,87,20,2.06,AU,1684153681
457,axim,4.8699,-2.2405,25.58,89,100,3.93,GH,1684153682
458,riohacha,11.5444,-72.9072,28.06,78,75,4.12,CO,1684153683
459,nemuro,43.3236,145.575,6.78,95,100,6.63,JP,1684153402
460,akjoujt,19.6969,-14.4164,38.73,12,54,4.1,MR,1684153686
461,dong ha,16.8163,107.1003,26.03,89,69,2.47,VN,1684153687
462,mount carmel,38.4109,-87.7614,18.34,87,98,4.84,US,1684153689
463,kamen'-na-obi,53.7884,81.3423,17.09,29,87,5.5,RU,1684153690
464,keta,5.9179,0.9879,25.12,72,100,5.0,GH,1684153692
465,mont-roig del camp,41.75,1.1833,22.84,25,8,4.16,ES,1684153693
466,sungai penuh,-2.0833,101.3833,20.33,97,49,0.99,ID,1684153694
467,kalat,29.0225,66.5916,26.73,12,53,8.63,PK,1684153695
468,timra,62.487,17.3257,14.82,55,75,7.2,SE,1684153696
469,balaipungut,1.05,101.2833,27.91,77,69,1.36,ID,1684153698
470,westport,41.1415,-73.3579,15.66,50,0,2.57,US,1684153642
471,ekpoma,6.7421,6.139,29.71,57,100,0.46,NG,1684153700
472,dalnegorsk,44.5604,135.5701,9.96,97,92,1.22,RU,1684153701
473,robit,12.0167,39.6333,24.54,63,59,1.23,ET,1684153702
474,harar,9.3094,42.1258,26.09,41,45,1.52,ET,1684153704
475,springs,-26.25,28.4,11.79,51,93,2.81,ZA,1684153705
476,alghero,40.5589,8.3181,20.05,60,20,4.12,IT,1684153636
477,miandrivazo,-19.5167,45.4667,31.32,45,16,3.46,MG,1684153707
478,isafjordur,66.0755,-23.124,1.02,64,75,5.66,IS,1684153708
479,shantobe,52.4581,68.1839,17.47,27,4,3.05,KZ,1684153710
480,chitipa,-9.7024,33.2697,25.81,51,82,2.89,MW,1684153711
481,skhirate,33.8498,-7.0404,27.4,85,0,4.92,MA,1684153712
482,ramanuj ganj,23.8,83.7,39.08,10,19,6.36,IN,1684153713
483,aykhal,66.0,111.5,-0.69,96,97,2.55,RU,1684153714
484,yokadouma,3.5167,15.05,35.95,36,68,1.36,CM,1684153717
485,asilah,35.465,-6.0348,21.98,65,3,6.2,MA,1684153718
486,portland,45.5234,-122.6762,21.2,66,40,0.89,US,1684152947
487,mount isa,-20.7333,139.5,18.87,55,75,1.54,AU,1684153720
488,vicuna,-30.0319,-70.7081,19.03,51,13,0.17,CL,1684153722
489,puerto deseado,-47.7503,-65.8938,11.11,89,20,9.65,AR,1684153724
490,kalmunai,7.4167,81.8167,29.94,76,99,4.9,LK,1684153726
491,amga,60.8953,131.9608,5.85,93,100,5.1,RU,1684153727
492,nouna,12.7333,-3.8667,31.31,48,100,5.4,BF,1684153729
493,mansar,21.4,79.25,40.85,12,43,5.53,IN,1684153730
494,harstad,68.799,16.5293,15.66,60,50,11.18,NO,1684153731
495,chikwawa,-16.0335,34.8009,32.37,38,3,2.06,MW,1684153732
496,chibougamau,49.9168,-74.3659,7.79,76,100,6.69,CA,1684153733
497,ipilan,8.8431,117.9033,28.16,78,29,1.5,PH,1684153735
498,mancio lima,-7.6142,-72.8958,24.04,94,0,0.0,BR,1684153736
499,sungailiat,-1.85,106.1333,27.65,82,52,2.37,ID,1684153737
500,talcahuano,-36.7167,-73.1167,13.27,92,100,3.97,CL,1684153580
501,luang namtha,20.9497,101.4011,25.01,94,100,1.03,LA,1684153740
502,lethem,3.3803,-59.7968,27.39,80,92,2.85,GY,1684153741
503,boguchar,49.9358,40.545,17.55,54,33,3.36,RU,1684153743
504,huilong,31.8111,121.655,23.02,53,37,5.85,CN,1684153744
505,darhan,49.4867,105.9228,1.7,96,100,1.99,MN,1684153745
506,illizi,26.4833,8.4667,25.89,15,0,8.44,DZ,1684153747
507,eilat,29.5581,34.9482,36.91,20,39,6.17,IL,1684153749
508,sanchursk,56.9413,47.2499,14.27,54,91,2.65,RU,1684153750
509,hillsborough,37.5741,-122.3794,14.9,89,75,4.63,US,1684153751
510,santa lucia,27.9117,-15.5407,19.87,56,20,10.29,ES,1684153752
511,busan,35.1028,129.0403,17.99,82,1,4.12,KR,1684153753
512,al jubayl,27.0112,49.6583,29.03,46,73,6.68,SA,1684153532
513,armacao de buzios,-22.7469,-41.8817,24.03,82,3,3.48,BR,1684153756
514,zalingei,12.9096,23.4741,38.72,9,25,1.07,SD,1684153757
515,kochkor-ata,41.0389,72.4833,31.11,19,10,1.13,UZ,1684153758
516,verkhnevilyuysk,63.4453,120.3167,5.36,55,100,2.82,RU,1684153759
517,dourdan,48.5277,2.0111,16.86,80,100,4.56,FR,1684153760
518,aoulef,26.9667,1.0833,30.3,10,0,7.04,DZ,1684153762
519,belel,7.05,14.4333,30.27,37,96,2.9,CM,1684153763
520,awjilah,29.1081,21.2869,35.66,10,86,6.73,LY,1684153764
521,cestos city,5.46,-9.5828,27.69,81,100,3.24,LR,1684153765
522,kenitra,34.261,-6.5802,22.42,43,1,5.14,MA,1684153766
523,konstantinovka,49.6167,127.9833,9.52,22,56,4.89,RU,1684153768
524,abeche,13.8292,20.8324,41.11,9,7,1.94,TD,1684153769
525,krasnaya gora,52.9995,31.6023,21.09,45,6,4.65,RU,1684153770
526,zhaoyuan,37.3592,120.3964,24.37,49,0,5.14,CN,1684153771
527,la mira,18.035,-102.3266,23.47,68,0,2.03,MX,1684153774
528,nar'yan-mar,67.6713,53.087,4.52,85,94,6.52,RU,1684153775
529,bamboo flat,11.7,92.7167,29.27,76,100,6.34,IN,1684153776
530,pitea,65.3172,21.4794,12.05,44,29,5.74,SE,1684153777
531,grinnell,41.743,-92.7224,12.99,78,100,4.63,US,1684153508
532,goz beida,13.95,20.55,41.69,10,2,3.25,TD,1684153780
533,queenstown,-31.8976,26.8753,11.76,69,93,2.34,ZA,1684153781
534,nykarleby,63.5228,22.5307,23.08,45,3,4.46,FI,1684153782
535,cururupu,-1.8283,-44.8683,28.75,77,15,2.73,BR,1684153784
536,yanbu,24.0891,38.0637,33.02,52,20,7.2,SA,1684153785
537,dolores,-36.3132,-57.6792,13.45,68,4,1.78,AR,1684153786
538,la passe,45.5549,-0.8967,20.13,72,100,5.24,FR,1684153787
539,motueka,-41.1333,173.0167,8.39,86,3,1.95,NZ,1684153788
540,guiratinga,-16.3494,-53.7583,21.79,60,58,1.51,BR,1684153791
541,salto,-31.3833,-57.9667,11.09,93,6,1.54,UY,1684153792
542,kismayo,-0.3582,42.5454,29.34,67,28,7.54,SO,1684153793
543,pelabuhanratu,-6.9875,106.5514,25.99,87,95,2.88,ID,1684153795
544,cabimas,10.3883,-71.4399,27.23,83,100,2.63,VE,1684153796
545,rio grande,-32.035,-52.0986,18.06,77,42,5.85,BR,1684153637
546,mont-laurier,46.5501,-75.4993,9.79,54,95,3.83,CA,1684153798
547,argo,37.6333,22.7333,21.55,43,98,2.52,GR,1684153799
548,melfort,52.8667,-104.6177,14.07,62,18,4.63,CA,1684153802
549,villa gesell,-37.2639,-56.973,15.12,83,33,2.41,AR,1684153532
550,igarka,67.4667,86.5833,-0.52,96,100,4.62,RU,1684153805
551,kili,5.6439,169.1211,27.6,82,99,5.47,MH,1684153806
552,nyrob,60.733,56.7202,15.7,43,100,3.05,RU,1684153807
553,holualoa,19.6228,-155.9522,20.99,83,100,4.63,US,1684153809
554,datia,25.6667,78.4667,40.26,8,4,3.42,IN,1684153810
555,hammerfest,70.6634,23.6821,15.25,47,0,3.09,NO,1684153812
556,pemangkat,1.1667,108.9667,27.41,82,12,3.4,ID,1684153814
557,kununurra,-15.7667,128.7333,20.99,78,40,0.0,AU,1684153815
558,dunedin,-45.8742,170.5036,9.33,78,2,2.44,NZ,1684153816
559,refahiye,39.9008,38.7667,12.8,47,6,4.82,TR,1684153817
560,burhanuddin,22.4918,90.7235,29.53,74,71,6.45,BD,1684153819
561,bellmere,-27.0875,152.923,21.06,99,100,0.79,AU,1684153821
562,klaipeda,55.7172,21.1175,24.03,66,100,5.45,LT,1684153721
563,sabang,5.8933,95.3214,28.84,76,9,7.87,ID,1684153823
564,rudbar,30.15,62.6,38.77,3,0,11.43,AF,1684153825
565,lospalos,-8.5186,127.0025,20.86,90,100,2.16,TL,1684153826
566,staraya russa,57.9944,31.3608,21.38,37,46,2.49,RU,1684153828
567,haiku-pauwela,20.9219,-156.3051,22.8,81,100,3.09,US,1684153829
568,kokhma,56.9349,41.0915,17.77,44,97,3.17,RU,1684153830
569,maracaju,-21.6144,-55.1683,19.1,67,0,2.83,BR,1684153826
570,khao wong,16.7001,104.0902,28.25,65,82,2.24,TH,1684153833
571,gurupa,-1.405,-51.64,29.37,70,28,1.67,BR,1684153837
572,vennesla,58.2694,7.9741,17.64,41,0,5.14,NO,1684153838
573,as sulayyil,20.4607,45.5779,40.14,8,0,4.55,SA,1684153839
574,fortuna,40.5982,-124.1573,12.74,93,6,0.26,US,1684153841
575,nizhnevartovsk,60.9344,76.5531,8.01,57,40,5.0,RU,1684153842
576,felege neway,6.3,36.8833,25.12,76,100,1.45,ET,1684153843
577,sur,22.5667,59.5289,37.95,31,0,1.97,OM,1684153844
