City_ID,City,Lat,Lng,Max Temp,Humidity,Cloudiness,Wind Speed,Country,Date
0,east london,-33.0153,27.9116,17.73,81,100,2.17,ZA,1672971628
1,albany,42.6001,-73.9662,6.69,90,97,0.89,US,1672971620
2,santa barbara,34.7333,-120.0343,9.9,91,100,2.06,US,1672971565
3,cayenne,4.9333,-52.3333,23.02,100,75,1.03,GF,1672971353
4,new norfolk,-42.7826,147.0587,20.4,36,0,2.16,AU,1672971633
5,nantucket,41.2835,-70.0995,8.06,98,100,6.17,US,1672971337
6,naze,28.3667,129.4833,16.51,57,61,2.54,JP,1672971636
7,rikitea,-23.1203,-134.9692,25.86,76,9,7.19,PF,1672971637
8,punta arenas,-53.15,-70.9167,14.06,72,75,10.29,CL,1672971639
9,samarai,-10.6167,150.6667,29.97,67,64,3.2,PG,1672971640
10,torit,4.4133,32.5678,23.19,30,12,0.5,SS,1672971643
11,berlevag,70.8578,29.0864,1.0,93,75,13.38,NO,1672971644
12,codrington,-38.2667,141.9667,22.37,50,0,8.33,AU,1672971645
13,dali,25.7,100.1833,9.48,52,1,1.95,CN,1672971647
14,ushuaia,-54.8,-68.3,17.81,52,75,9.26,AR,1672971648
15,camacha,33.0833,-16.3333,13.68,77,20,1.03,PT,1672971649
16,qaanaaq,77.484,-69.3632,-24.03,84,100,3.79,GL,1672971651
17,osterburg,52.7833,11.7667,6.18,99,100,3.8,DE,1672971652
18,muroto,33.2833,134.15,9.22,53,0,2.48,JP,1672971653
19,pevek,69.7008,170.3133,-33.58,95,100,1.69,RU,1672971656
20,noumea,-22.2763,166.4572,31.99,99,100,1.84,NC,1672971412
21,margate,51.3813,1.3862,11.17,87,100,4.02,GB,1672971658
22,caravelas,-17.7125,-39.2481,25.07,88,100,3.79,BR,1672971660
23,baillif,16.0202,-61.7463,23.72,77,100,6.37,GP,1672971662
24,balaguer,41.7912,0.8109,3.82,80,0,0.9,ES,1672971664
25,mar del plata,-38.0023,-57.5575,21.72,93,0,2.57,AR,1672971607
26,souillac,-20.5167,57.5167,26.21,78,40,5.14,MU,1672971668
27,mahebourg,-20.4081,57.7,26.25,78,40,5.14,MU,1672971670
28,barrow,71.2906,-156.7887,-19.99,77,100,9.26,US,1672971486
29,bonthe,7.5264,-12.505,24.79,81,4,1.85,SL,1672971673
30,tromso,69.6496,18.957,-9.99,79,40,1.54,NO,1672971676
31,khuzdar,27.7384,66.6434,7.28,26,44,0.84,PK,1672971677
32,yellowknife,62.456,-114.3525,-13.71,85,100,4.63,CA,1672971680
33,mataura,-46.1927,168.8643,22.69,68,98,3.64,NZ,1672971682
34,sorland,67.667,12.6934,-1.45,59,1,12.39,NO,1672971683
35,san policarpo,12.1791,125.5072,26.62,85,100,7.83,PH,1672971684
36,bengkulu,-3.8004,102.2655,26.2,78,77,1.36,ID,1672971686
37,port elizabeth,-33.918,25.5701,16.16,81,20,2.06,ZA,1672971688
38,mangai,-4.05,19.5333,20.32,99,100,1.07,CD,1672971690
39,bambous virieux,-20.3428,57.7575,26.23,78,40,5.14,MU,1672971691
40,cabo san lucas,22.8909,-109.9124,23.61,70,0,3.6,MX,1672971408
41,atar,20.5169,-13.0499,17.96,19,80,3.7,MR,1672971694
42,villa carlos paz,-31.4241,-64.4978,23.79,29,3,2.24,AR,1672971695
43,fountain,38.6822,-104.7008,2.6,54,0,1.54,US,1672971497
44,yokadouma,3.5167,15.05,20.03,50,88,0.69,CM,1672971697
45,cap malheureux,-19.9842,57.6142,26.37,71,20,4.02,MU,1672971699
46,raga,8.4596,25.678,18.76,39,24,2.01,SS,1672971700
47,adrar,20.5022,-10.0711,14.35,21,26,4.82,MR,1672971701
48,castro,-24.7911,-50.0119,11.73,95,5,2.55,BR,1672971703
49,puerto ayora,-0.7393,-90.3518,23.08,95,38,0.89,EC,1672971704
50,kapaa,22.0752,-159.319,26.99,76,40,3.6,US,1672971544
51,nelson bay,-32.7167,152.15,22.03,75,35,2.68,AU,1672971707
52,jamestown,42.097,-79.2353,4.77,60,100,2.06,US,1672971708
53,mecca,21.4267,39.8261,19.86,68,100,2.74,SA,1672971154
54,coahuayana,18.7333,-103.6833,22.66,92,0,0.3,MX,1672971710
55,isla vista,34.4133,-119.861,13.79,72,20,3.09,US,1672971712
56,zyryanka,65.75,150.85,-44.52,99,95,1.59,RU,1672971715
57,neuquen,-38.9516,-68.0591,28.94,32,0,3.6,AR,1672971511
58,tuatapere,-46.1333,167.6833,17.24,91,100,3.06,NZ,1672971718
59,domoni,-12.2569,44.5319,25.63,85,41,2.86,KM,1672971719
60,irbeyskoye,55.6428,95.4522,-3.19,84,100,6.08,RU,1672971720
61,hermanus,-34.4187,19.2345,18.03,61,100,4.83,ZA,1672971722
62,bluff,-46.6,168.3333,14.5,92,100,9.15,NZ,1672971724
63,faanui,-16.4833,-151.75,27.63,65,15,4.34,PF,1672971725
64,middelburg,-25.7751,29.4648,16.95,90,97,0.93,ZA,1672971726
65,veere,51.5483,3.6667,11.14,89,100,10.8,NL,1672971728
66,salekhard,66.53,66.6019,-27.51,92,100,6.84,RU,1672971730
67,asfi,32.2994,-9.2372,15.07,75,0,2.31,MA,1672971732
68,namibe,-15.1961,12.1522,21.57,80,78,4.44,AO,1672971733
69,tiksi,71.6872,128.8694,-28.37,93,100,1.13,RU,1672971736
70,cherskiy,68.75,161.3,-46.57,100,69,0.79,RU,1672971737
71,hobart,-42.8794,147.3294,20.59,54,75,4.12,AU,1672971739
72,severo-kurilsk,50.6789,156.125,-5.35,69,36,3.38,RU,1672971740
73,turgoyak,55.15,60.1183,-15.58,97,100,1.63,RU,1672971742
74,butaritari,3.0707,172.7902,27.47,72,97,5.86,KI,1672971745
75,kidal,18.4411,1.4078,18.06,22,81,4.34,ML,1672971746
76,ostrovnoy,68.0531,39.5131,-10.2,79,100,1.55,RU,1672971748
77,nizhniy kuranakh,58.8353,125.4869,-20.42,98,100,0.77,RU,1672971749
78,longyearbyen,78.2186,15.6401,-0.09,69,75,6.17,SJ,1672971751
79,busselton,-33.65,115.3333,24.69,56,91,8.69,AU,1672971675
80,kaitangata,-46.2817,169.8464,17.18,90,97,3.79,NZ,1672971753
81,kodiak,57.79,-152.4072,-4.27,93,0,3.09,US,1672971755
82,flinders,-34.5833,150.8552,18.47,90,100,2.68,AU,1672971756
83,lakes entrance,-37.8811,147.981,20.09,58,71,4.83,AU,1672971757
84,husavik,66.0449,-17.3389,-4.41,90,100,4.4,IS,1672971759
85,chara,56.9064,118.2631,-22.87,84,97,0.3,RU,1672971760
86,cape town,-33.9258,18.4232,17.37,71,0,9.77,ZA,1672971762
87,pechenizhyn,48.5155,24.8942,4.24,78,93,7.01,UA,1672971763
88,bethel,41.3712,-73.414,7.23,87,100,2.06,US,1672971766
89,saint-augustin,51.226,-58.6502,-15.17,74,1,4.36,CA,1672971767
90,tursunzoda,38.5144,68.2333,7.86,46,100,1.06,TJ,1672971769
91,katsina,12.9894,7.6006,16.11,25,79,4.84,NG,1672971770
92,ketchikan,55.3422,-131.6461,6.99,81,100,2.06,US,1672971772
93,vardo,70.3705,31.1107,-1.01,93,40,10.29,NO,1672971774
94,ribeira grande,38.5167,-28.7,16.54,85,100,7.6,PT,1672971775
95,avarua,-21.2078,-159.775,25.03,78,75,5.14,CK,1672971777
96,haines junction,60.7522,-137.5108,-11.03,85,100,0.51,CA,1672971778
97,lagoa,39.05,-27.9833,15.13,84,100,13.1,PT,1672971779
98,sao filipe,14.8961,-24.4956,23.8,63,100,4.54,CV,1672971781
99,tuktoyaktuk,69.4541,-133.0374,-27.0,76,0,3.09,CA,1672971783
100,geraldton,-28.7667,114.6,29.23,58,0,5.66,AU,1672971784
101,hami,42.8,93.45,-8.46,70,2,1.12,CN,1672971786
102,fukagawa,43.7081,142.0392,-3.97,81,77,1.81,JP,1672971788
103,lorengau,-2.0226,147.2712,28.48,78,100,4.22,PG,1672971789
104,cockburn town,21.4612,-71.1419,25.75,77,10,9.82,TC,1672971791
105,murray bridge,-35.1167,139.2667,29.08,32,0,3.17,AU,1672971793
106,talcahuano,-36.7167,-73.1167,15.82,94,40,0.0,CL,1672971795
107,rajapur,25.3833,81.15,6.36,58,0,1.81,IN,1672971797
108,lasa,46.6166,10.7002,4.49,64,21,1.73,IT,1672971798
109,ormara,25.2088,64.6357,19.43,43,47,2.17,PK,1672971800
110,niquelandia,-14.4739,-48.4597,20.93,98,100,1.62,BR,1672971801
111,mayumba,-3.432,10.6554,24.25,89,86,0.85,GA,1672971803
112,oume,35.7839,139.2431,7.67,33,75,1.54,JP,1672971804
113,karpathos,35.507,27.2132,14.98,77,2,5.66,GR,1672971806
114,shieli,44.1667,66.75,1.06,78,100,3.07,KZ,1672971808
115,dikson,73.5069,80.5464,-32.49,100,100,2.16,RU,1672971809
116,mendi,-6.1761,143.6513,19.22,72,100,2.24,PG,1672971811
117,grindavik,63.8424,-22.4338,-4.74,93,0,2.06,IS,1672971812
118,laguna,38.421,-121.4238,11.53,89,100,4.12,US,1672971632
119,saint george,37.1041,-113.5841,8.33,92,100,5.66,US,1672971674
120,sao gabriel da cachoeira,-0.1303,-67.0892,22.51,98,100,0.4,BR,1672971815
121,kruisfontein,-34.0033,24.7314,14.38,83,98,2.48,ZA,1672971817
122,lamu,-2.2717,40.902,25.12,79,5,5.11,KE,1672971818
123,chuy,-33.6971,-53.4616,17.73,82,1,3.26,UY,1672971820
124,yining,29.0361,114.5636,13.42,57,0,0.87,CN,1672971821
125,carnarvon,-24.8667,113.6333,25.12,78,60,7.01,AU,1672971822
126,hasaki,35.7333,140.8333,9.05,40,100,1.74,JP,1672971824
127,champerico,14.3,-91.9167,25.65,77,0,2.24,GT,1672971825
128,saint-pierre,-21.3393,55.4781,23.82,73,35,3.09,RE,1672971826
129,tambopata,-12.7333,-69.1833,18.5,97,99,0.95,PE,1672971828
130,sena madureira,-9.0656,-68.6569,20.46,100,100,0.66,BR,1672971829
131,nouadhibou,20.931,-17.0347,17.99,68,0,4.63,MR,1672971830
132,orlik,52.5178,99.825,-19.27,99,98,1.41,RU,1672971832
133,arraial do cabo,-22.9661,-42.0278,22.18,94,100,7.16,BR,1672971833
134,vaini,-21.2,-175.2,29.09,79,75,5.14,TO,1672971834
135,nambucca heads,-30.65,153.0,25.0,59,85,6.23,AU,1672971836
136,ambilobe,-13.2,49.05,22.28,94,78,1.51,MG,1672971837
137,leningradskiy,69.3833,178.4167,-29.6,97,99,3.74,RU,1672971838
138,hithadhoo,-0.6,73.0833,26.78,68,0,4.6,MV,1672971840
139,bani walid,31.7566,13.9942,10.56,61,0,1.53,LY,1672971841
140,ambulu,-8.345,113.6058,26.12,83,100,4.11,ID,1672971843
141,nenjiang,49.1833,125.2167,-23.18,95,22,0.97,CN,1672971844
142,pushkar,26.5,74.55,3.93,42,0,2.37,IN,1672971846
143,port augusta,-32.5,137.7667,30.29,22,0,3.65,AU,1672971847
144,davila,18.4726,120.5763,28.99,75,25,8.87,PH,1672971849
145,bilibino,68.0546,166.4372,-38.49,99,93,0.89,RU,1672971852
146,norman wells,65.282,-126.8329,-22.98,84,100,1.03,CA,1672971853
147,saint-philippe,-21.3585,55.7679,23.77,83,61,6.02,RE,1672971855
148,la ronge,55.1001,-105.2842,-11.86,85,100,1.03,CA,1672971857
149,arandis,-22.4167,14.9667,12.3,81,40,1.21,NA,1672971859
150,villazon,-22.0866,-65.5942,6.49,73,100,3.87,BO,1672971860
151,port lincoln,-34.7333,135.8667,20.73,62,4,5.92,AU,1672971862
152,hilo,19.7297,-155.09,25.85,83,75,3.6,US,1672971762
153,kununurra,-15.7667,128.7333,30.99,62,75,6.69,AU,1672971866
154,nome,64.5011,-165.4064,-3.96,74,100,4.12,US,1672971788
155,houma,29.5958,-90.7195,14.44,68,0,2.52,US,1672971670
156,chulman,56.8479,124.9104,-29.53,97,96,1.02,RU,1672971870
157,siguiri,11.6667,-9.5,20.64,20,45,1.63,GN,1672971871
158,guerrero negro,27.9769,-114.0611,15.69,75,2,6.79,MX,1672971872
159,kavieng,-2.5744,150.7967,28.28,77,53,3.5,PG,1672971874
160,biak,-0.9131,122.8766,27.0,71,100,1.17,ID,1672971875
161,laranjeiras do sul,-25.4078,-52.4161,13.93,73,0,2.1,BR,1672971876
162,ilulissat,69.2167,-51.1,-13.99,51,24,0.0,GL,1672971878
163,talnakh,69.4865,88.3972,-42.11,95,41,1.06,RU,1672971881
164,esperance,-33.8667,121.9,24.99,45,0,3.77,AU,1672971882
165,fortuna,40.5982,-124.1573,9.43,95,100,4.12,US,1672971883
166,male,4.1748,73.5089,26.82,72,0,6.48,MV,1672971800
167,bredasdorp,-34.5322,20.0403,17.76,55,100,2.82,ZA,1672971885
168,gamba,-2.65,10.0,23.83,90,80,1.2,GA,1672971887
169,fougamou,-1.2154,10.5838,22.15,98,87,0.75,GA,1672971888
170,gazanjyk,39.2446,55.5154,5.01,77,23,2.53,TM,1672971808
171,yulara,-25.2406,130.9889,29.28,17,100,8.64,AU,1672971890
172,svetlogorsk,52.6333,29.7333,-5.14,86,100,6.61,BY,1672971892
173,markova,48.6758,24.4138,2.8,88,99,5.2,UA,1672971893
174,warrington,53.3925,-2.5802,8.67,85,20,6.69,GB,1672971817
175,lieksa,63.3167,30.0167,-18.17,99,27,2.13,FI,1672971896
176,atuona,-9.8,-139.0333,25.6,78,4,6.93,PF,1672971897
177,broome,42.2506,-75.833,5.92,85,75,2.06,US,1672971898
178,tecpan,14.7623,-90.9947,10.49,90,21,2.64,GT,1672971899
179,pisco,-13.7,-76.2167,21.03,83,0,2.57,PE,1672971901
180,havre,49.5833,0.3333,10.87,87,75,7.72,FR,1672971902
181,samana,19.2056,-69.3369,23.39,88,73,3.67,DO,1672971904
182,asau,46.4333,26.4,6.51,78,100,4.06,RO,1672971906
183,griffith,41.5284,-87.4237,0.96,91,100,6.17,US,1672971907
184,konya,38.1667,32.5,-8.29,57,1,0.84,TR,1672971909
185,upernavik,72.7868,-56.1549,-27.87,77,13,4.58,GL,1672971911
186,neunkirchen,49.35,7.1833,10.14,90,75,4.63,DE,1672971912
187,henties bay,-22.116,14.2845,15.86,85,96,4.12,NA,1672971914
188,monrovia,6.3005,-10.7969,25.31,81,73,1.31,LR,1672971916
189,hamilton,39.1834,-84.5333,4.85,73,100,3.09,US,1672971616
190,lebu,-37.6167,-73.65,14.15,94,6,1.44,CL,1672971920
191,gobabis,-22.45,18.9667,19.83,21,22,6.16,NA,1672971922
192,pangai,-19.8,-174.35,28.06,74,75,3.6,TO,1672971739
193,ordzhonikidze,52.4411,61.7408,-20.58,100,99,3.12,KZ,1672971925
194,campobello di mazara,37.6358,12.7443,11.58,88,5,2.65,IT,1672971926
195,san cristobal,7.7669,-72.225,20.1,89,95,0.5,VE,1672971928
196,gambela,8.25,34.5833,24.86,46,21,0.8,ET,1672971929
197,sarangani,5.4033,125.4636,27.81,76,89,7.21,PH,1672971932
198,urbano santos,-3.2078,-43.4036,22.99,90,15,0.69,BR,1672971933
199,yerbogachen,61.2767,108.0108,-17.81,99,100,1.38,RU,1672971934
200,dawlatabad,36.4141,64.9053,9.08,53,100,0.72,AF,1672971936
201,chern,53.4523,36.9145,-12.34,87,100,7.36,RU,1672971938
202,lata,40.1629,-8.3327,4.49,85,3,1.34,PT,1672971940
203,coari,-4.085,-63.1414,23.35,96,100,0.72,BR,1672971941
204,aksarka,66.5606,67.7975,-29.75,96,100,6.32,RU,1672971943
205,vila franca do campo,37.7167,-25.4333,15.23,83,100,4.53,PT,1672971944
206,portland,45.5234,-122.6762,12.23,88,100,4.47,US,1672971179
207,nikolskoye,59.7035,30.7861,-12.33,97,99,0.65,RU,1672971948
208,urkarakh,42.163,47.6307,-0.26,46,8,3.34,RU,1672971950
209,amudat,1.95,34.95,18.42,49,26,2.22,UG,1672971951
210,port-gentil,-0.7193,8.7815,26.13,83,100,7.97,GA,1672971952
211,hualmay,-11.0964,-77.6139,21.09,78,100,3.42,PE,1672971954
212,colquechaca,-18.6667,-66.0167,-1.2,79,100,2.6,BO,1672971955
213,opuwo,-18.0607,13.84,18.74,47,73,1.74,NA,1672971957
214,bilma,18.6853,12.9164,15.42,34,100,2.15,NE,1672971958
215,buraydah,26.326,43.975,6.25,61,0,2.34,SA,1672971959
216,bathsheba,13.2167,-59.5167,25.34,78,40,11.83,BB,1672971961
217,maragogi,-9.0122,-35.2225,25.07,83,22,3.65,BR,1672971964
218,thompson,55.7435,-97.8558,-12.91,92,100,2.06,CA,1672971965
219,college,64.8569,-147.8028,-19.03,82,20,0.0,US,1672971966
220,fairbanks,64.8378,-147.7164,-19.02,82,0,0.0,US,1672971968
221,fort nelson,58.8053,-122.7002,-18.23,78,75,1.03,CA,1672971970
222,los llanos de aridane,28.6585,-17.9182,14.86,63,0,4.12,ES,1672971971
223,kendari,-3.945,122.4989,30.43,61,100,0.88,ID,1672971973
224,vuktyl,63.8567,57.3094,-20.41,99,100,1.04,RU,1672971975
225,kloulklubed,7.0419,134.2556,26.28,86,100,8.92,PW,1672971977
226,avera,33.194,-82.5271,10.86,60,0,3.73,US,1672971979
227,chokurdakh,70.6333,147.9167,-44.77,100,98,1.29,RU,1672971863
228,kathmandu,27.7167,85.3167,4.12,87,20,1.54,NP,1672971616
229,jinchang,38.4953,102.1739,1.33,16,0,2.71,CN,1672971984
230,starkville,33.4504,-88.8184,7.81,82,0,0.0,US,1672971986
231,constitucion,-35.3333,-72.4167,14.27,93,24,1.89,CL,1672971987
232,narsaq,60.9167,-46.05,0.12,53,95,8.43,GL,1672971989
233,kazerun,29.6195,51.6541,8.92,91,39,0.53,IR,1672971990
234,araouane,18.9048,-3.5265,18.8,20,100,4.13,ML,1672971991
235,zhuanghe,39.7008,122.9911,-3.5,86,100,4.52,CN,1672971993
236,dao,11.3937,122.6856,25.57,83,100,1.79,PH,1672971994
237,comodoro rivadavia,-45.8667,-67.5,28.92,23,0,4.12,AR,1672971995
238,georgetown,5.4112,100.3354,28.96,65,20,3.6,MY,1672971764
239,klaksvik,62.2266,-6.589,4.51,99,100,15.51,FO,1672971998
240,khatanga,71.9667,102.5,-49.79,100,82,1.9,RU,1672971999
241,rahuri,19.3833,74.65,20.61,68,100,3.73,IN,1672972001
242,hanzhong,33.0728,107.0303,7.28,56,0,0.57,CN,1672972002
243,makaryev,57.8797,43.8069,-33.6,99,20,2.16,RU,1672972003
244,batagay,67.6333,134.6333,-38.85,100,100,1.11,RU,1672972006
245,ribnica,45.7386,14.7275,6.83,92,47,0.38,SI,1672972007
246,victoria,22.2855,114.1577,21.09,58,58,1.79,HK,1672972009
247,la paz,-16.5,-68.15,6.99,100,75,2.57,BO,1672971923
248,vangaindrano,-23.35,47.6,22.31,93,100,1.39,MG,1672972011
249,dalvik,65.9702,-18.5286,-6.04,82,100,3.41,IS,1672972012
250,liverpool,53.4106,-2.9779,9.05,84,20,6.69,GB,1672971438
251,mareeba,-17.0,145.4333,28.05,84,100,3.82,AU,1672972016
252,olafsvik,64.8945,-23.7142,-1.79,81,99,3.54,IS,1672972017
253,tiznit,29.5833,-9.5,12.18,53,0,1.2,MA,1672972019
254,kangaatsiaq,68.3065,-53.4641,-20.25,90,15,3.51,GL,1672972020
255,ponta do sol,32.6667,-17.1,17.62,78,27,1.05,PT,1672972022
256,imbituba,-28.24,-48.6703,19.53,82,0,0.48,BR,1672972023
257,sohag,26.557,31.6948,11.16,71,0,3.12,EG,1672972025
258,kushmurun,52.4503,64.6311,-17.21,100,94,1.46,KZ,1672972030
259,tahta,26.7693,31.5021,11.33,70,0,2.9,EG,1672972031
260,torbay,47.6666,-52.7314,-5.24,73,100,5.66,CA,1672972033
261,chivay,-15.6383,-71.6011,7.17,66,89,2.24,PE,1672972036
262,hirara,24.8,125.2833,20.92,73,75,3.09,JP,1672972038
263,chabahar,25.2919,60.643,19.68,43,100,1.97,IR,1672972039
264,itoman,26.1247,127.6694,21.01,57,75,5.14,JP,1672972040
265,abonnema,4.7084,6.7931,21.16,79,97,1.76,NG,1672972043
266,kolchugino,56.3,39.3833,-27.93,97,10,3.5,RU,1672972044
267,hofn,64.2539,-15.2082,0.21,81,100,6.82,IS,1672972046
268,magadi,12.9667,77.2333,16.09,89,7,2.76,IN,1672972047
269,nicoya,10.1483,-85.452,23.9,73,0,5.17,CR,1672972049
270,tarjan,47.6104,18.5107,9.0,74,65,5.98,HU,1672972050
271,egvekinot,66.3167,-179.1667,-24.53,91,99,5.07,RU,1672972052
272,oksfjord,70.2396,22.3479,-5.9,70,85,2.88,NO,1672972053
273,beloha,-25.1667,45.05,21.39,89,63,2.72,MG,1672972054
274,riyadh,24.6877,46.7219,10.08,74,100,4.67,SA,1672971899
275,vigrestad,58.5667,5.7,2.82,94,100,18.03,NO,1672972057
276,guarapari,-20.6667,-40.4975,25.5,96,100,2.05,BR,1672972058
277,harlingen,26.1906,-97.6961,20.5,93,0,3.09,US,1672972060
278,fort payne,34.4442,-85.7197,9.73,65,0,0.0,US,1672972061
279,kampong thum,12.7111,104.8887,20.97,83,100,2.49,KH,1672971998
280,jalu,29.0331,21.5482,15.34,69,100,1.67,LY,1672972064
281,sitka,57.0531,-135.33,6.94,53,100,0.0,US,1672972065
282,saint anthony,45.0205,-93.218,-6.22,89,75,3.6,US,1672972066
283,lere,10.387,8.5726,17.06,35,52,2.73,NG,1672972068
284,tautira,-17.7333,-149.15,26.49,74,84,4.03,PF,1672972069
285,santa cruz del norte,23.1539,-81.9236,23.76,74,6,4.27,CU,1672972070
286,alta floresta,-9.8756,-56.0861,22.2,98,100,1.09,BR,1672972073
287,slave lake,55.2834,-114.769,-10.01,92,40,6.72,CA,1672971945
288,spokane,47.6166,-117.3677,2.43,71,100,3.09,US,1672971319
289,varkaus,62.3153,27.873,-18.74,99,41,2.04,FI,1672972077
290,taoudenni,22.6783,-3.9836,16.6,24,97,5.65,ML,1672972078
291,svetlaya,46.5389,138.3297,-8.55,54,23,2.35,RU,1672972079
292,surt,31.2089,16.5887,15.91,62,24,2.88,LY,1672972081
293,agua verde,22.9,-106.05,21.05,64,0,3.59,MX,1672972082
294,pacific grove,36.6177,-121.9166,11.95,88,100,2.06,US,1672972085
295,mayor pablo lagerenza,-19.9309,-60.7718,22.89,41,72,1.69,PY,1672972087
296,poplar bluff,36.757,-90.3929,6.21,51,0,2.06,US,1672972088
297,dhidhdhoo,6.8833,73.1,26.38,67,0,3.26,MV,1672972090
298,balkanabat,39.5108,54.3671,5.74,72,85,3.18,TM,1672972094
299,ouro preto do oeste,-10.7481,-62.2158,20.98,97,80,1.08,BR,1672972096
300,okhotsk,59.3833,143.3,-24.05,86,92,5.55,RU,1672972098
301,sanming,26.2486,117.6186,15.37,76,21,1.46,CN,1672972100
302,dauphin,51.1494,-100.0502,-11.92,92,100,4.12,CA,1672971897
303,bairiki,1.3292,172.9752,30.0,66,20,4.63,KI,1672972104
304,meulaboh,4.1363,96.1285,25.33,87,82,0.99,ID,1672972105
305,sobolevo,54.4299,31.8996,-14.0,87,30,5.73,RU,1672972107
306,kitimat,54.0524,-128.6534,2.21,49,100,0.45,CA,1672972108
307,dandong,40.1292,124.3947,-3.91,83,100,1.47,CN,1672972110
308,gimli,50.6336,-96.9907,-14.99,85,100,1.03,CA,1672972111
309,badian,9.8647,123.3964,27.7,77,62,4.15,PH,1672972112
310,hobyo,5.3505,48.5268,24.72,77,23,7.18,SO,1672972114
311,sirjan,29.452,55.6814,4.85,88,0,4.06,IR,1672972115
312,geisenheim,49.9833,7.9667,11.68,95,100,2.52,DE,1672972116
313,funtua,11.5233,7.3081,16.35,28,100,4.65,NG,1672972118
314,vallenar,-28.5708,-70.7581,19.34,64,0,1.0,CL,1672972120
315,faya,18.3851,42.4509,10.06,49,19,2.05,SA,1672972122
316,finnsnes,69.2296,17.9811,-23.66,95,62,2.7,NO,1672972123
317,yamada,39.4667,141.95,3.09,48,49,0.55,JP,1672972124
318,stromness,58.965,-3.296,6.98,86,85,11.18,GB,1672972126
319,cidreira,-30.1811,-50.2056,22.05,76,0,5.01,BR,1672972127
320,morondava,-20.2833,44.2833,24.54,82,79,3.37,MG,1672972129
321,juneau,58.3019,-134.4197,2.34,100,100,0.0,US,1672972107
322,nishihara,26.1842,127.7558,20.6,58,75,5.14,JP,1672972131
323,oistins,13.0667,-59.5333,25.05,78,40,11.83,BB,1672972132
324,sisimiut,66.9395,-53.6735,-12.73,66,23,3.83,GL,1672972134
325,beringovskiy,63.05,179.3167,-24.84,92,97,4.87,RU,1672972135
326,roebourne,-20.7833,117.1333,34.75,32,98,4.34,AU,1672972137
327,raudeberg,61.9875,5.1352,3.81,70,100,8.52,NO,1672972138
328,orneta,54.1148,20.1333,-3.1,71,27,3.56,PL,1672972139
329,tadine,-21.55,167.8833,28.43,78,100,5.8,NC,1672972141
330,namatanai,-3.6667,152.4333,28.73,75,73,2.42,PG,1672971900
331,airai,-8.9266,125.4092,21.76,65,94,2.85,TL,1672972144
332,phan thiet,10.9333,108.1,23.74,79,100,1.6,VN,1672972145
333,port hardy,50.6996,-127.4199,7.1,93,100,11.32,CA,1672972147
334,wawa,9.9022,4.4192,22.94,34,96,1.66,NG,1672972148
335,dagana,16.5165,-15.5068,22.49,15,78,4.55,MR,1672972152
336,bonavista,48.6499,-53.1147,-5.37,68,26,7.75,CA,1672972155
337,inta,66.0317,60.1659,-18.85,86,100,5.94,RU,1672972156
338,caxito,-8.5785,13.6643,23.79,94,100,0.63,AO,1672972158
339,port arthur,38.8,121.2667,6.62,73,100,6.36,CN,1672972159
340,bela,25.9333,81.9833,6.33,59,0,2.47,IN,1672972161
341,tagusao,9.1924,117.8141,28.1,77,100,4.65,PH,1672972163
342,hauterive,46.0901,3.4459,10.42,92,100,0.11,FR,1672972165
343,kirgiz-miyaki,53.6324,54.7979,-8.91,94,100,5.1,RU,1672972167
344,coihaique,-45.5752,-72.0662,19.34,55,0,2.57,CL,1672972168
345,lima,-12.0432,-77.0282,22.72,71,0,4.12,PE,1672971940
346,manzhouli,49.6,117.4333,-26.79,97,52,0.27,CN,1672972171
347,santa cruz,-17.8,-63.1667,22.7,78,78,1.03,BO,1672972172
348,provideniya,64.3833,-173.3,-13.24,92,100,3.23,RU,1672972174
349,benghazi,32.1167,20.0667,16.6,63,1,2.96,LY,1672972175
350,mama,58.3106,112.8986,-14.75,97,100,2.27,RU,1672972176
351,praia,14.9215,-23.5087,22.95,72,100,6.18,CV,1672972178
352,zhenhai,24.2582,118.0905,18.38,75,26,3.59,CN,1672972179
353,raton,36.9034,-104.4391,6.34,23,0,7.2,US,1672972181
354,xiuyan,40.2928,123.2744,-4.32,81,100,1.63,CN,1672972182
355,sur,22.5667,59.5289,20.01,67,69,1.07,OM,1672972183
356,muzhi,65.3667,64.6667,-25.17,98,100,6.04,RU,1672972185
357,bardiyah,31.7561,25.0865,16.25,62,100,5.08,LY,1672972186
358,haifa,32.8156,34.9892,14.56,67,100,3.68,IL,1672972188
359,shimoda,34.6667,138.95,9.2,71,98,1.03,JP,1672972189
360,sao felix do xingu,-6.6447,-51.995,22.06,98,100,0.95,BR,1672972190
361,aklavik,68.2191,-135.0107,-21.24,100,96,1.01,CA,1672972194
362,nabire,-3.3667,135.4833,29.69,66,94,1.65,ID,1672971908
363,dickinson,29.4608,-95.0513,17.31,86,0,1.54,US,1672972129
364,tabou,4.423,-7.3528,25.61,78,100,1.99,CI,1672972198
365,ishinomaki,38.4167,141.3,5.0,56,99,5.56,JP,1672972199
366,uyemskiy,64.4743,40.8524,-16.97,71,0,3.0,RU,1672972200
367,saskylakh,71.9167,114.0833,-35.26,99,100,0.52,RU,1672972202
368,banda aceh,5.5577,95.3222,27.73,70,92,2.88,ID,1672972204
369,xining,36.6167,101.7667,-1.84,19,0,1.17,CN,1672972206
370,lagunas,-5.2269,-75.6753,24.59,78,100,0.4,PE,1672972210
371,bahir dar,11.5936,37.3908,14.53,81,26,1.43,ET,1672972213
372,quime,-16.9833,-67.2167,8.99,89,91,0.64,BO,1672972217
373,farafangana,-22.8167,47.8333,23.91,88,93,1.5,MG,1672972219
374,khandyga,62.6667,135.6,-31.79,99,100,0.91,RU,1672972220
375,kapoeta,4.7717,33.5903,24.79,30,29,2.5,SS,1672972222
376,port alfred,-33.5906,26.891,15.66,93,100,0.45,ZA,1672972224
377,kolno,53.4115,21.9291,-3.06,71,92,4.51,PL,1672972226
378,warmbad,-28.45,18.7333,16.31,52,0,3.4,NA,1672972228
379,nador,35.174,-2.9287,8.14,100,0,1.54,MA,1672972229
380,paungde,18.4833,95.5,25.02,41,3,5.59,MM,1672972232
381,salalah,17.0151,54.0924,24.05,69,75,3.09,OM,1672972234
382,bambari,5.768,20.6757,23.48,35,88,1.08,CF,1672972235
383,mayo,38.8876,-76.5119,11.74,81,0,1.54,US,1672972236
384,escanaba,45.7453,-87.0646,-1.83,100,100,2.3,US,1672972238
385,yantal,56.8471,105.2542,-10.06,93,100,3.18,RU,1672972239
386,san vicente,-26.6167,-54.1333,17.53,49,0,1.09,AR,1672972241
387,hay river,60.8156,-115.7999,-12.01,85,75,2.06,CA,1672972242
388,san quintin,30.4833,-115.95,15.69,74,91,3.11,MX,1672972243
389,isangel,-19.55,169.2667,26.82,89,100,8.87,VU,1672972245
390,nanakuli,21.3906,-158.1547,27.24,69,20,4.12,US,1672972246
391,tiarei,-17.5333,-149.3333,30.01,74,54,2.73,PF,1672972248
392,greytown,-29.0642,30.5928,12.9,97,100,4.47,ZA,1672972249
393,tasiilaq,65.6145,-37.6368,-10.91,55,37,3.98,GL,1672972250
394,zhangye,38.9342,100.4517,2.12,19,0,3.12,CN,1672972252
395,odweyne,9.4092,45.064,17.62,65,0,1.17,SO,1672972253
396,kieta,-6.2167,155.6333,29.34,72,82,3.98,PG,1672972254
397,port macquarie,-31.4333,152.9167,25.5,59,67,5.66,AU,1672972256
398,dongning,44.0622,131.1207,-6.69,77,6,0.97,CN,1672972257
399,tessalit,20.1986,1.0114,18.13,22,100,2.77,ML,1672972260
400,kirakira,-10.4544,161.9205,28.72,77,51,4.2,SB,1672972261
401,ballina,-28.8667,153.5667,23.21,83,91,8.47,AU,1672972263
402,verkhoyansk,67.5447,133.385,-44.32,100,78,1.41,RU,1672972265
403,bayji,34.9311,43.487,8.2,88,29,2.63,IQ,1672972266
404,gao,16.6362,1.637,17.52,21,21,5.16,ML,1672972268
405,mach,29.8637,67.3298,8.73,19,75,0.35,PK,1672972270
406,moratuwa,6.773,79.8816,25.01,82,44,4.74,LK,1672972271
407,north bend,43.4065,-124.2243,10.95,91,100,5.66,US,1672972273
408,vestmanna,62.1564,-7.1664,3.51,75,75,6.17,FO,1672972275
409,baturaja,-4.1333,104.1667,29.99,60,69,0.61,ID,1672972276
410,pangnirtung,66.1451,-65.7125,-20.57,86,100,0.75,CA,1672972278
411,belmonte,-15.8631,-38.8828,24.55,91,100,2.91,BR,1672972280
412,yar-sale,66.8333,70.8333,-28.99,100,100,4.58,RU,1672972282
413,petropavlovka,50.6114,105.3196,-19.57,92,37,1.76,RU,1672972288
414,alice springs,-23.7,133.8833,28.75,21,100,6.17,AU,1672972271
415,ambon,-3.6954,128.1814,32.08,66,20,4.12,ID,1672972290
416,sain alto,23.5833,-103.25,13.17,29,0,2.74,MX,1672972292
417,axim,4.8699,-2.2405,25.42,80,100,2.21,GH,1672972293
418,te anau,-45.4167,167.7167,20.2,72,100,2.78,NZ,1672972295
419,sao joao da barra,-21.6403,-41.0511,22.84,95,100,2.54,BR,1672972296
420,vitorino freire,-4.0667,-45.1667,22.67,97,74,1.61,BR,1672972298
421,abu dhabi,24.4667,54.3667,21.06,71,0,3.6,AE,1672972113
422,civitanova marche,43.307,13.7206,10.65,79,1,1.86,IT,1672972302
423,taltal,-25.4,-70.4833,19.2,83,0,1.29,CL,1672972303
424,sebinkarahisar,40.2883,38.4236,-1.3,80,63,1.13,TR,1672972305
425,poum,-20.2333,164.0167,27.59,72,100,3.32,NC,1672972306
426,sanmenxia,34.7747,111.1814,8.79,22,0,4.04,CN,1672972307
427,boysun,38.2061,67.1986,5.15,58,100,1.81,UZ,1672972309
428,solnechnyy,50.7214,136.6319,-17.22,86,90,1.09,RU,1672972310
429,inirida,3.8653,-67.9239,24.65,78,83,0.24,CO,1672972312
430,vostok,46.4856,135.8833,-13.1,80,56,1.5,RU,1672972313
431,manta,-0.95,-80.7333,25.88,73,20,3.6,EC,1672972315
432,rudbar,30.15,62.6,11.4,23,93,2.29,AF,1672972317
433,greenfield,42.9614,-88.0126,0.81,88,100,2.57,US,1672972318
434,tondano,1.3038,124.9112,26.67,60,86,2.55,ID,1672972320
435,iqaluit,63.7506,-68.5145,-26.15,70,75,6.69,CA,1672972193
436,mugur-aksy,50.35,90.5,-15.25,93,73,3.13,RU,1672972324
437,iquitos,-3.7481,-73.2472,25.02,78,75,1.03,PE,1672972326
438,tirano,46.2154,10.1679,7.0,60,11,2.66,IT,1672972327
439,vasilyevo,55.836,48.6582,-17.63,100,80,2.15,RU,1672972329
440,mount isa,-20.7333,139.5,31.87,40,75,3.6,AU,1672972330
441,nusaybin,37.0778,41.2178,4.52,91,0,2.92,TR,1672972332
442,elk river,45.3038,-93.5672,-7.73,92,46,2.04,US,1672972222
443,laem sing,12.4816,102.0738,27.2,100,100,5.51,TH,1672972336
444,westport,41.1415,-73.3579,7.93,86,100,4.12,US,1672972083
445,shakiso,5.75,38.9167,10.2,64,47,1.99,ET,1672972339
446,matara,5.9485,80.5353,25.59,83,58,1.63,LK,1672972340
447,half moon bay,37.4636,-122.4286,12.42,88,100,3.09,US,1672972343
448,cabra,37.4725,-4.4421,8.19,86,0,0.85,ES,1672972345
449,los alamos,35.8881,-106.307,2.2,70,75,1.54,US,1672972346
450,quballat,36.5418,9.6633,10.88,85,83,1.54,TN,1672972349
451,alofi,-19.0595,-169.9187,28.94,65,75,4.63,NU,1672972351
452,agadez,19.75,10.25,13.04,41,5,2.51,NE,1672972352
453,merauke,-8.4667,140.3333,30.18,67,100,6.71,ID,1672972353
454,erzin,36.9559,36.2,9.87,77,52,1.16,TR,1672972355
455,hovd,48.0056,91.6419,-10.73,75,100,0.96,MN,1672972356
456,bambanglipuro,-7.95,110.2833,27.12,80,98,4.85,ID,1672972358
457,tanout,14.9709,8.8879,14.49,31,87,5.54,NE,1672972359
458,prince rupert,54.3161,-130.3201,6.83,87,100,6.69,CA,1672972361
459,walvis bay,-22.9575,14.5053,13.94,82,10,3.6,NA,1672972362
460,roald,62.5833,6.1333,4.51,56,100,9.26,NO,1672972363
461,port hedland,-20.3167,118.5667,33.03,55,100,3.6,AU,1672972268
462,noyabrsk,63.1994,75.4507,-20.65,98,100,6.22,RU,1672972366
463,badiraguato,25.3667,-107.5167,18.72,27,0,1.93,MX,1672972367
464,sungairaya,0.7,108.9,26.63,84,99,3.84,ID,1672972369
465,magadan,59.5667,150.8,-21.93,74,16,3.08,RU,1672972370
466,chapais,49.7834,-74.8492,-12.12,94,100,3.32,CA,1672972372
467,clyde river,70.4692,-68.5914,-32.87,75,0,1.03,CA,1672972374
468,victor harbor,-35.5667,138.6167,29.82,68,0,3.98,AU,1672972375
469,sistranda,63.7256,8.834,-1.02,68,100,10.46,NO,1672972377
470,san patricio,28.017,-97.5169,18.92,56,0,3.28,US,1672972378
471,lethem,3.3803,-59.7968,24.21,83,98,4.48,GY,1672972379
472,ancud,-41.8697,-73.8203,12.88,94,1,1.8,CL,1672972381
473,tukrah,32.5341,20.5791,14.78,70,0,2.7,LY,1672972383
474,belaya gora,68.5333,146.4167,-42.89,99,100,0.35,RU,1672972384
475,chuzhou,32.3219,118.2978,12.09,38,0,6.65,CN,1672972386
476,birao,10.2849,22.7882,18.59,33,14,3.96,CF,1672972388
477,pozo colorado,-23.4923,-58.7972,22.58,46,0,2.33,PY,1672972391
478,broken hill,-31.95,141.4333,28.53,21,0,5.46,AU,1672972396
479,ibimirim,-8.5406,-37.6903,24.08,61,35,2.51,BR,1672972400
480,auka,14.9333,-83.8333,20.96,93,0,1.39,HN,1672972401
481,phonhong,18.5007,102.4166,23.47,58,50,0.77,LA,1672972403
482,san carlos de bariloche,-41.1456,-71.3082,18.86,55,0,8.23,AR,1672972363
483,talaya,61.3833,152.75,-38.89,99,49,0.09,RU,1672972407
484,paka,4.6374,103.4368,25.21,76,96,4.11,MY,1672972408
485,lavrentiya,65.5833,-171.0,-15.08,93,100,2.2,RU,1672972410
486,urengoy,65.9667,78.3667,-34.16,92,86,3.88,RU,1672972411
487,bereda,43.2686,-7.5406,5.79,100,79,1.11,ES,1672972412
488,wanning,18.8003,110.3967,21.33,68,100,7.97,CN,1672972414
489,galle,6.0367,80.217,25.77,81,40,1.86,LK,1672972415
490,benjamin aceval,-24.9667,-57.5667,24.22,55,0,2.59,PY,1672972416
491,vysotsk,60.6288,28.5705,-14.26,95,12,3.05,RU,1672972417
492,porto velho,-8.7619,-63.9039,24.03,94,0,0.51,BR,1672972298
493,tsabong,-26.0217,22.401,18.44,26,0,4.7,BW,1672972421
494,pemba,-12.974,40.5178,26.39,83,20,3.09,MZ,1672972422
495,upata,8.0086,-62.3989,21.22,96,90,2.87,VE,1672972423
496,ovalle,-30.5983,-71.2003,20.06,64,0,1.18,CL,1672972425
497,buchanan,5.8808,-10.0467,24.79,83,78,0.7,LR,1672972426
498,changji,44.0167,87.3167,-12.56,92,59,1.0,CN,1672972427
499,nouakchott,18.0858,-15.9785,20.31,31,94,4.95,MR,1672972429
500,udachnyy,66.4167,112.4,-46.21,100,89,1.49,RU,1672972430
501,posse,-14.0931,-46.3694,19.98,95,100,1.7,BR,1672972431
502,petropavlovsk-kamchatskiy,53.0452,158.6483,-13.67,66,75,3.0,RU,1672972434
503,chinhoyi,-17.3667,30.2,17.94,95,97,1.4,ZW,1672972435
504,quang ngai,15.1167,108.8,21.19,90,100,6.51,VN,1672972228
505,eureka,40.8021,-124.1637,9.58,93,100,1.79,US,1672972240
506,derzhavinsk,51.1,66.3167,-4.15,94,100,5.43,KZ,1672972438
507,inhambane,-23.865,35.3833,25.58,89,96,3.49,MZ,1672972440
508,angoram,-4.0625,144.0661,30.3,64,100,0.75,PG,1672972441
509,kargasok,59.0556,80.8572,-14.46,95,100,3.46,RU,1672972443
510,lagoa vermelha,-28.2086,-51.5258,13.38,80,0,2.4,BR,1672972444
511,thinadhoo,0.5333,72.9333,26.73,72,9,3.25,MV,1672972445
512,corn island,12.1694,-83.0418,26.82,73,65,8.07,NI,1672972447
513,usinsk,65.9939,57.5281,-22.48,95,100,6.91,RU,1672972449
514,along,28.1667,94.7667,16.31,32,0,1.01,IN,1672972450
515,carutapera,-1.195,-46.02,24.88,84,93,3.12,BR,1672972452
516,ust-kuyga,70.0167,135.6,-33.15,97,100,1.35,RU,1672972453
517,deputatskiy,69.3,139.9,-36.69,94,100,1.63,RU,1672972455
518,andenes,69.3143,16.1194,-4.01,58,0,6.17,NO,1672972456
519,buckeye,33.3703,-112.5838,16.22,73,100,3.09,US,1672972458
520,mpanda,-6.3655,31.0409,17.48,91,94,1.17,TZ,1672972459
521,arman,59.7,150.1667,-21.66,77,41,2.73,RU,1672972461
522,rundu,-17.9333,19.7667,19.91,61,100,1.67,NA,1672972462
523,los lunas,34.8062,-106.7334,6.88,64,100,0.76,US,1672972464
524,sampit,-2.5333,112.95,30.55,61,86,2.44,ID,1672972466
525,leninskoye,41.7589,69.3864,3.83,91,100,2.07,KZ,1672972467
526,mildura,-34.2,142.15,29.48,37,0,4.63,AU,1672972469
527,sicuani,-14.2694,-71.2261,7.6,90,100,1.58,PE,1672972470
528,palm city,27.1678,-80.2662,22.83,79,75,3.6,US,1672972460
529,nadvoitsy,63.8667,34.3167,-11.13,96,99,2.97,RU,1672972473
530,lerwick,60.1545,-1.1494,8.0,79,64,11.34,GB,1672972474
531,ibia,-19.4783,-46.5389,21.06,97,100,0.41,BR,1672972475
532,trelew,-43.249,-65.3051,27.28,32,55,8.57,AR,1672972471
533,neiafu,-18.65,-173.9833,28.38,83,75,3.6,TO,1672972478
534,jabinyanah,35.035,10.9081,13.89,77,48,3.98,TN,1672972479
535,seondha,26.1578,78.7797,7.47,48,0,1.3,IN,1672972480
536,itarema,-2.9248,-39.9167,25.69,79,60,5.04,BR,1672972481
537,bom jesus,-9.0744,-44.3586,23.26,87,99,0.95,BR,1672972483
538,payo,-3.7508,103.6372,29.86,62,73,0.13,ID,1672972484
539,sumbe,-11.2061,13.8437,24.8,86,100,1.91,AO,1672972485
540,jacareacanga,-6.2222,-57.7528,22.67,98,100,1.02,BR,1672972487
541,koulikoro,14.0,-7.75,18.17,22,92,3.23,ML,1672972488
542,kilindoni,-7.9139,39.6668,27.72,75,37,5.38,TZ,1672972489
543,dicabisagan,17.0818,122.4157,24.07,88,100,4.25,PH,1672972491
544,berck,50.4,1.6,11.82,87,100,6.17,FR,1672972492
545,terra rica,-22.7094,-52.6169,17.37,88,35,3.17,BR,1672972494
546,auki,-8.7676,160.7034,28.21,82,44,3.36,SB,1672972496
547,yingcheng,30.95,113.55,13.56,37,0,3.54,CN,1672972497
548,el alto,-4.2714,-81.2147,20.81,75,100,5.76,PE,1672972500
549,saldanha,-33.0117,17.9442,15.03,74,1,6.18,ZA,1672972501
550,severnyy,50.677,36.5532,0.02,100,100,3.0,RU,1672972502
551,hare bay,48.8499,-54.0148,-9.34,76,84,3.48,CA,1672972504
552,buala,-8.145,159.5921,28.55,78,36,3.39,SB,1672972505
553,watertown,42.3709,-71.1828,4.08,94,100,6.17,US,1672972456
554,zapolyarnyy,69.4154,30.8136,-5.4,92,100,3.81,RU,1672972507
555,chipoka,-13.9933,34.5157,22.5,82,95,1.9,MW,1672972509
556,lunenburg,44.3835,-64.3155,0.03,99,100,1.03,CA,1672972510
557,abashiri,44.0213,144.2697,-0.59,51,20,4.63,JP,1672972511
558,mount gambier,-37.8333,140.7667,24.94,38,0,5.33,AU,1672972274
559,san andres,12.5847,-81.7006,27.01,74,20,5.14,CO,1672972514
560,jiexiu,37.0244,111.9125,4.11,21,0,5.36,CN,1672972515
561,hilton head island,32.2163,-80.7526,14.99,88,0,0.45,US,1672972516
562,mehamn,71.0357,27.8492,0.97,93,75,6.69,NO,1672972518
563,christchurch,-43.5333,172.6333,30.18,54,89,5.14,NZ,1672972490
564,tezu,27.9167,96.1667,20.77,25,0,0.79,IN,1672972520
565,turukhansk,65.8167,87.9833,-38.43,98,25,1.86,RU,1672972521
566,paso de los toros,-32.8167,-56.5167,21.76,50,0,7.54,UY,1672972523
567,waw,7.7029,27.9953,20.93,41,13,2.3,SS,1672972524
568,bairnsdale,-37.8333,147.6167,20.03,63,17,2.68,AU,1672972525
569,bitlis,38.5,42.25,-3.97,65,0,3.21,TR,1672972527
570,regina,50.4501,-104.6178,-12.94,82,100,2.06,CA,1672972529
571,belfast,54.5833,-5.9333,7.43,81,89,8.75,GB,1672972530
572,kahului,20.8947,-156.47,27.01,79,20,6.17,US,1672972532
573,honningsvag,70.9821,25.9704,1.86,87,75,11.32,NO,1672972533
574,gladstone,-23.85,151.25,28.96,58,100,3.6,AU,1672972534
575,zeya,53.75,127.2667,-23.5,91,26,0.8,RU,1672972393
576,meliti,40.8333,21.5833,4.87,87,8,2.55,GR,1672972538
577,zhezkazgan,47.8043,67.7144,-2.01,93,100,5.0,KZ,1672972540
578,pascagoula,30.3658,-88.5561,12.02,99,0,0.0,US,1672972541
579,santa cruz de la palma,28.6835,-17.7642,17.08,63,0,4.12,ES,1672972273
580,ous,60.9058,61.5186,-30.99,100,92,1.45,RU,1672972544
581,ojinaga,29.5667,-104.4167,16.9,23,0,1.51,MX,1672972545
582,hambantota,6.1241,81.1185,25.19,100,20,1.03,LK,1672972546
583,kavaratti,10.5669,72.642,27.11,66,0,3.93,IN,1672972547
584,pitangui,-19.6828,-44.8903,19.66,99,100,0.88,BR,1672972549
585,tazovskiy,67.4667,78.7,-37.29,98,11,2.49,RU,1672972550
586,vengerovo,55.6848,76.7471,-23.44,100,99,1.11,RU,1672972551
587,tabuk,17.4189,121.4443,22.44,95,100,0.81,PH,1672972553
588,narva-joesuu,59.4589,28.0408,-9.72,81,84,4.41,EE,1672972554
